全国地方公共団体コード,ID,名称,名称_カナ,名称_英字,所在地_全国地方公共団体コード,町字ID,所在地_連結表記,所在地_都道府県,所在地_市区町村,所在地_町字,所在地_番地以下,建物名等(方書),緯度,経度,標高,電話番号,内線番号,連絡先メールアドレス,連絡先FormURL,連絡先備考（その他、SNSなど）,郵便番号,市区町村コード,地方公共団体名,災害種別_洪水,災害種別_崖崩れ、土石流及び地滑り,災害種別_高潮,災害種別_地震,災害種別_津波,災害種別_大規模な火事,災害種別_内水氾濫,災害種別_火山現象,指定避難所との重複,,想定収容人数,対象となる町会・自治会,URL,画像,画像_ライセンス,備考
382019,E3820100602201,城山公園,シロヤマコウエン,,382019,,愛媛県松山市堀之内,,,,,,33.84199297,132.7618544,,,,,,,,382019,愛媛県松山市,,,1,1,1,1,,,,,"50,700 ",,,,,
382019,E3820100407201,東雲公園,シノノメコウエン,,382019,,愛媛県松山市東雲町7-2,,,,,,33.84578624,132.7736788,,,,,,,,382019,愛媛県松山市,,1,1,1,1,,,,,,"4,800 ",,,,,
382019,E3820100199201,持田若宮公園,モチダワカミヤコウエン,,382019,,愛媛県松山市持田町3-250-1,,,,,,33.84437357,132.781522,,,,,,,,382019,愛媛県松山市,,1,1,1,1,,,,,,900 ,,,,,
382019,E3820100177201,八坂公園,ヤサカコウエン,,382019,,愛媛県松山市三番町1-3-3,,,,,,33.83718035,132.7729964,,,,,,,,382019,愛媛県松山市,,1,1,1,1,,,,,,"1,400 ",,,,,
382019,E3820100194201,枝松公園,エダマツコウエン,,382019,,愛媛県松山市枝松4-229-1 外,,,,,,33.83129557,132.7860078,,,,,,,,382019,愛媛県松山市,,1,1,1,1,,,,,,"2,900 ",,,,,
382019,E3820100196201,川附公園（福音公園）,カワツケコウエンフクオンコウエン,,382019,,愛媛県松山市枝松6-14-4,,,,,,33.82445,132.784796,,,,,,,,382019,愛媛県松山市,,1,1,1,1,,,,,,"2,500 ",,,,,
382019,E3820100224201,小坂公園,コサカコウエン,,382019,,愛媛県松山市小坂5-306-3,,,,,,33.82545125,132.7810031,,,,,,,,382019,愛媛県松山市,,1,1,1,1,,,,,,900 ,,,,,
382019,E3820100358201,中村公園,ナカムラコウエン,,382019,,愛媛県松山市中村3-367-1,,,,,,33.83161151,132.7757263,,,,,,,,382019,愛媛県松山市,,1,1,1,1,,,,,,600 ,,,,,
382019,E3820100343201,拓川市民運動広場,タクセンシミンウンドウヒロバ,,382019,,愛媛県松山市拓川町453-1,,,,,,33.82648217,132.7656567,,,,,,,,382019,愛媛県松山市,,1,1,1,1,,,,,,"9,607 ",,,,,
382019,E3820100221201,小栗公園,オグリコウエン,,382019,,愛媛県松山市小栗6-202-1,,,,,,33.82685381,132.7552119,,,,,,,,382019,愛媛県松山市,,1,1,1,1,,,,,,"2,500 ",,,,,
382019,E3820100099201,空港通１，２公園,クウコウドオリイチニコウエン,,382019,,愛媛県松山市空港通1-247外,,,,,,33.8274808,132.7503708,,,,,,,,382019,愛媛県松山市,,1,1,1,1,,,,,,"4,000 ",,,,,
382019,E3820100400201,土居田公園,ドイダコウエン,,382019,,愛媛県松山市土居田町423,,,,,,33.82417373,132.7459932,,,,,,,,382019,愛媛県松山市,,1,1,1,1,,,,,,"1,000 ",,,,,
382019,E3820100401201,土居田本村公園,ドイダホンムラコウエン,,382019,,愛媛県松山市土居田町581-2,,,,,,33.82033215,132.7437885,,,,,,,,382019,愛媛県松山市,,1,1,1,1,,,,,,"1,500 ",,,,,
382019,E3820100267201,針田公園,ハリタコウエン,,382019,,愛媛県松山市針田町107-5 外,,,,,,33.82351598,132.7363038,,,,,,,,382019,愛媛県松山市,,1,1,1,1,,,,,,"1,100 ",,,,,
382019,E3820100178201,新玉公園,アラタマコウエン,,382019,,愛媛県松山市三番町6-4-21 外,,,,,,33.8381426,132.7597269,,,,,,,,382019,愛媛県松山市,,1,1,1,1,,,,,,"1,400 ",,,,,
382019,E3820100306201,幸町公園,サイワイマチコウエン,,382019,,愛媛県松山市千舟町7-6-7,,,,,,33.83781724,132.7551114,,,,,,,,382019,愛媛県松山市,,1,1,1,1,,,,,,"1,200 ",,,,,
382019,E3820100609201,南味酒公園,ミナミミサケコウエン,,382019,,愛媛県松山市味酒町1-11,,,,,,33.84249547,132.7554043,,,,,,,,382019,愛媛県松山市,,1,1,1,1,,,,,,"1,700 ",,,,,
382019,E3820100464201,南江戸公園,ミナミエドコウエン,,382019,,愛媛県松山市南江戸4-972,,,,,,33.83748148,132.7424507,,,,,,,,382019,愛媛県松山市,,1,1,1,1,,,,,,"17,400 ",,,,,
382019,E3820100381201,松山総合公園,マツヤマソウゴウコウエン,,382019,,愛媛県松山市朝日ヶ丘1,,,,,,33.84386873,132.7395232,,,,,,,,382019,愛媛県松山市,1,,1,1,1,1,,,,,"24,800 ",,,,,
382019,E3820100382201,朝日ケ丘公園,アサヒガオカコウエン,,382019,,愛媛県松山市朝日ヶ丘2-1464,,,,,,33.84760635,132.7436076,,,,,,,,382019,愛媛県松山市,1,1,1,1,1,,,,,,"3,000 ",,,,,
382019,E3820100001201,愛光公園,アイコウコウエン,,382019,,愛媛県松山市愛光町395-1,,,,,,33.84643801,132.7497798,,,,,,,,382019,愛媛県松山市,,1,1,1,1,,,,,,"1,400 ",,,,,
382019,E3820100062201,萱町公園,カヤマチコウエン,,382019,,愛媛県松山市萱町5-10-1,,,,,,33.85042199,132.7566385,,,,,,,,382019,愛媛県松山市,,1,1,1,1,,,,,,"1,400 ",,,,,
382019,E3820100611201,木屋町公園,キヤチョウコウエン,,382019,,愛媛県松山市木屋町3-4-3,,,,,,33.85212692,132.7600655,,,,,,,,382019,愛媛県松山市,,1,1,1,1,,,,,,"1,100 ",,,,,
382019,E3820100281201,清水公園,シミズコウエン,,382019,,愛媛県松山市清水町2-7-2,,,,,,33.850132,132.762921,,,,,,,,382019,愛媛県松山市,,1,1,1,1,,,,,,"3,100 ",,,,,
382019,E3820100516201,姫原西公園,ヒメバラニシコウエン,,382019,,愛媛県松山市姫原3-392-4,,,,,,33.86487062,132.7561643,,,,,,,,382019,愛媛県松山市,1,1,1,1,1,,,,,,"1,200 ",,,,,
382019,E3820100180201,日分公園,ニチブコウエン,,382019,,愛媛県松山市山越1-531-12,,,,,,33.85676054,132.7583447,,,,,,,,382019,愛媛県松山市,,1,1,1,1,,,,,,"1,300 ",,,,,
382019,E3820100183201,丁地公園,チョウジコウエン,,382019,,愛媛県松山市山越5-10-3,,,,,,33.86028398,132.7508023,,,,,,,,382019,愛媛県松山市,,1,1,1,1,,,,,,"1,600 ",,,,,
382019,E3820100184201,山越公園,ヤマゴエコウエン,,382019,,愛媛県松山市山越5-3-1,,,,,,33.860441,132.752969,,,,,,,,382019,愛媛県松山市,,1,1,1,1,,,,,,"3,100 ",,,,,
382019,E3820100185201,高崎公園,タカサキコウエン,,382019,,愛媛県松山市山越6-13-1,,,,,,33.856821,132.750997,,,,,,,,382019,愛媛県松山市,,1,1,1,1,,,,,,"3,200 ",,,,,
382019,E3820100278201,正円寺公園,ショウエンジコウエン,,382019,,愛媛県松山市正円寺3-54-4地内,,,,,,33.8381456,132.8003325,,,,,,,,382019,愛媛県松山市,1,1,1,1,1,,,,,,"2,500 ",,,,,
382019,E3820100431201,ひがしの北公園,ヒガシノキタコウエン,,382019,,愛媛県松山市東野3-甲278-1 外,,,,,,33.84354609,132.8029739,,,,,,,,382019,愛媛県松山市,1,1,1,1,1,,,,,,"2,000 ",,,,,
382019,E3820100110201,経石山公園,キョウセキザンコウエン,,382019,,愛媛県松山市桑原4-408 外,,,,,,33.83061868,132.7940325,,,,,,,,382019,愛媛県松山市,1,1,1,1,1,,,,,,"1,200 ",,,,,
382019,E3820100504201,畑寺公園,ハタデラコウエン,,382019,,愛媛県松山市畑寺1-508-1 外,,,,,,33.83211844,132.8000167,,,,,,,,382019,愛媛県松山市,,,1,1,1,,,,,,"1,900 ",,,,,
382019,E3820100174201,三町三角公園,サンチョウサンカクコウエン,,382019,,愛媛県松山市三町3-85-2,,,,,,33.82392032,132.798015,,,,,,,,382019,愛媛県松山市,,1,1,1,1,,,,,,300 ,,,,,
382019,E3820100443201,道後公園,ドウゴコウエン,,382019,,愛媛県松山市道後公園地内,,,,,,33.8485383,132.7866132,,,,,,,,382019,愛媛県松山市,,,1,1,1,,,,,,"85,600 ",,,,,
382019,E3820100449201,湯月公園,ユヅキコウエン,,382019,,愛媛県松山市道後姫塚140-1,,,,,,33.85047419,132.7906429,,,,,,,,382019,愛媛県松山市,1,,1,1,1,,,,,,"17,000 ",,,,,
382019,E3820100208201,祝谷公園,イワイダニコウエン,,382019,,愛媛県松山市祝谷4-869-1 外,,,,,,33.856577,132.777409,,,,,,,,382019,愛媛県松山市,,,1,1,1,,,,,,"1,900 ",,,,,
382019,E3820100211201,祝谷北公園,イワイダニキタコウエン,,382019,,愛媛県松山市祝谷6-1093-1 外,,,,,,33.86065722,132.776197,,,,,,,,382019,愛媛県松山市,1,,1,1,1,,,,,,"1,400 ",,,,,
382019,E3820100567201,中津東公園,ナカツヒガシコウエン,,382019,,愛媛県松山市北斎院町乙7-2 外,,,,,,33.83813697,132.7326574,,,,,,,,382019,愛媛県松山市,1,,1,1,1,,,,,,"3,900 ",,,,,
382019,E3820100563201,北斎院公園,キタサヤコウエン,,382019,,愛媛県松山市北斎院町242-3 外,,,,,,33.8343658,132.7295908,,,,,,,,382019,愛媛県松山市,,1,1,1,1,,,,,,"1,600 ",,,,,
382019,E3820100566201,津田公園,ツダコウエン,,382019,,愛媛県松山市北斎院町810-1,,,,,,33.84133588,132.718939,,,,,,,,382019,愛媛県松山市,1,1,1,1,1,,,,,,"1,800 ",,,,,
382019,E3820100564201,中津公園,ナカツコウエン,,382019,,愛媛県松山市北斎院町469-1,,,,,,33.83743269,132.7251053,,,,,,,,382019,愛媛県松山市,,1,1,1,1,,,,,,"2,000 ",,,,,
382019,E3820100548201,福水公園,フクスイコウエン,,382019,,愛媛県松山市別府町927-1,,,,,,33.84619845,132.7282647,,,,,,,,382019,愛媛県松山市,1,1,1,1,1,,,,,,"2,900 ",,,,,
382019,E3820100547201,別府清水山公園,ベフシミズヤマコウエン,,382019,,愛媛県松山市別府町755-2 外,,,,,,33.84662545,132.7157177,,,,,,,,382019,愛媛県松山市,,1,,1,1,,,,,,"1,500 ",,,,,
382019,E3820100546201,飯岡公園,イイオカコウエン,,382019,,愛媛県松山市別府町538-3,,,,,,33.84897051,132.7206981,,,,,,,,382019,愛媛県松山市,,1,,1,1,,,,,,"2,000 ",,,,,
382019,E3820100471201,南斎院公園,ミナミサヤコウエン,,382019,,愛媛県松山市南斎院町232-3,,,,,,33.8311156,132.7348739,,,,,,,,382019,愛媛県松山市,,1,1,1,1,,,,,,"1,200 ",,,,,
382019,E3820100188201,山西公園,ヤマニシコウエン,,382019,,愛媛県松山市山西町909,,,,,,33.85410177,132.7227332,,,,,,,,382019,愛媛県松山市,,1,,1,1,,,,,,"1,200 ",,,,,
382019,E3820100279201,三本柳公園（清住公園）,サンボンヤナギコウエンキヨスミコウエン,,382019,,愛媛県松山市清住1-8-4,,,,,,33.85442282,132.71904,,,,,,,,382019,愛媛県松山市,,1,,1,,,,,,,"1,400 ",,,,,
382019,E3820100333201,三津大可賀公園,ミツオオカガコウエン,,382019,,愛媛県松山市大可賀1-5,,,,,,33.85462742,132.7147449,,,,,,,,382019,愛媛県松山市,,1,,1,1,,,,,,"13,700 ",,,,,
382019,E3820100517201,富久公園,トミヒサコウエン,,382019,,愛媛県松山市富久町302-5 外,,,,,,33.82343039,132.7279028,,,,,,,,382019,愛媛県松山市,,1,1,1,1,,,,,,"2,200 ",,,,,
382019,E3820100556201,北吉田公園,キタヨシダコウエン,,382019,,愛媛県松山市北吉田町1211,,,,,,33.83838218,132.7088897,,,,,,,,382019,愛媛県松山市,,1,,1,1,,,,,,"3,100 ",,,,,
382019,E3820100157201,高岡中央公園,タカオカチュウオウコウエン,,382019,,愛媛県松山市高岡町582-5 外,,,,,,33.83197286,132.7211807,,,,,,,,382019,愛媛県松山市,,1,1,1,1,,,,,,"1,100 ",,,,,
382019,E3820100159201,若宮公園,ワカミヤコウエン,,382019,,愛媛県松山市高岡町783-29,,,,,,33.83527803,132.7178298,,,,,,,,382019,愛媛県松山市,,1,1,1,1,,,,,,"1,400 ",,,,,
382019,E3820100160201,高岡第一公園,タカオカダイイチコウエン,,382019,,愛媛県松山市高岡町835-1,,,,,,33.83175094,132.71394,,,,,,,,382019,愛媛県松山市,,1,1,1,1,,,,,,"2,400 ",,,,,
382019,E3820100155201,高岡みなみ公園,タカオカミナミコウエン,,382019,,愛媛県松山市高岡町46-1,,,,,,33.82597662,132.7243292,,,,,,,,382019,愛媛県松山市,,1,1,1,1,,,,,,"1,000 ",,,,,
382019,E3820100456201,空港南公園,クウコウミナミコウエン,,382019,,愛媛県松山市南吉田町2267,,,,,,33.82146225,132.7047234,,,,,,,,382019,愛媛県松山市,,1,,1,1,,,,,,"5,300 ",,,,,
382019,E3820100457201,空港南第二公園,クウコウミナミダイニコウエン,,382019,,愛媛県松山市南吉田町2428,,,,,,33.82303543,132.7024703,,,,,,,,382019,愛媛県松山市,,1,,1,1,,,,,,"4,900 ",,,,,
382019,E3820100460201,鶴ケ丘公園,ツルガオカコウエン,,382019,,愛媛県松山市南吉田町527-3,,,,,,33.82237868,132.7145923,,,,,,,,382019,愛媛県松山市,,1,,1,1,,,,,,500 ,,,,,
382019,E3820100454201,南吉田公園,ミナミヨシダコウエン,,382019,,愛媛県松山市南吉田町1252-1,,,,,,33.82668527,132.7054824,,,,,,,,382019,愛媛県松山市,,1,,1,1,,,,,,"1,200 ",,,,,
382019,E3820100459201,南吉田第二公園,ミナミヨシダダイニコウエン,,382019,,愛媛県松山市南吉田町2653,,,,,,33.82378413,132.7090444,,,,,,,,382019,愛媛県松山市,,1,,1,1,,,,,,"1,300 ",,,,,
382019,E3820100458201,南吉田第三公園,ミナミヨシダダイサンコウエン,,382019,,愛媛県松山市南吉田町2593-1,,,,,,33.82351674,132.7092751,,,,,,,,382019,愛媛県松山市,,1,,1,1,,,,,,"1,900 ",,,,,
382019,E3820100455201,南吉田中央公園,ミナミヨシダチュウオウコウエン,,382019,,愛媛県松山市南吉田町1366,,,,,,33.826969,132.709387,,,,,,,,382019,愛媛県松山市,,1,,1,1,,,,,,"2,800 ",,,,,
382019,E3820100289201,大新田公園,オオシンデンコウエン,,382019,,愛媛県松山市西垣生町286,,,,,,33.80868322,132.6996922,,,,,,,,382019,愛媛県松山市,,1,,1,,,,,,,"5,400 ",,,,,
382019,E3820100285201,西垣生公園,ニシハブコウエン,,382019,,愛媛県松山市西垣生町1066-7,,,,,,33.81621887,132.7036237,,,,,,,,382019,愛媛県松山市,,1,,1,1,,,,,,700 ,,,,,
382019,E3820100287201,住吉公園,スミヨシコウエン,,382019,,愛媛県松山市西垣生町1369-1,,,,,,33.8105842,132.6992864,,,,,,,,382019,愛媛県松山市,,1,,1,,,,,,,"1,900 ",,,,,
382019,E3820100412201,東垣生公園,ヒガシハブコウエン,,382019,,愛媛県松山市東垣生町758-2,,,,,,33.81623955,132.71493,,,,,,,,382019,愛媛県松山市,,1,,1,1,,,,,,"3,000 ",,,,,
382019,E3820100416201,空港東公園,クウコウヒガシコウエン,,382019,,愛媛県松山市東垣生町950-1 外,,,,,,33.81683929,132.7112521,,,,,,,,382019,愛媛県松山市,,1,,1,1,,,,,,"7,800 ",,,,,
382019,E3820100411201,奥土居公園,オクドイコウエン,,382019,,愛媛県松山市東垣生町706-1,,,,,,33.81468887,132.7163005,,,,,,,,382019,愛媛県松山市,,1,,1,1,,,,,,"3,600 ",,,,,
382019,E3820100413201,八反地公園,ハッタンジコウエン,,382019,,愛媛県松山市東垣生町782,,,,,,33.81547545,132.7170805,,,,,,,,382019,愛媛県松山市,,1,,1,1,,,,,,700 ,,,,,
382019,E3820100415201,空港東第二公園,クウコウヒガシダイニコウエン,,382019,,愛媛県松山市東垣生町928-1,,,,,,33.81686757,132.7149424,,,,,,,,382019,愛媛県松山市,,1,,1,1,,,,,,"10,200 ",,,,,
382019,E3820100410201,空港東第三公園,クウコウヒガシダイサンコウエン,,382019,,愛媛県松山市東垣生町628-1,,,,,,33.81561364,132.7143822,,,,,,,,382019,愛媛県松山市,,1,,1,1,,,,,,"5,800 ",,,,,
382019,E3820100414201,空港東第四公園,クウコウヒガシダイヨンコウエン,,382019,,愛媛県松山市東垣生町869-1,,,,,,33.81786504,132.7150717,,,,,,,,382019,愛媛県松山市,,1,,1,1,,,,,,"9,200 ",,,,,
382019,E3820100417201,東山公園,ヒガシヤマコウエン,,382019,,愛媛県松山市東山町4109-1 外,,,,,,33.86360726,132.7313464,,,,,,,,382019,愛媛県松山市,1,1,,1,1,,,,,,"1,300 ",,,,,
382019,E3820100058201,会津公園,アイズコウエン,,382019,,愛媛県松山市会津町11-6,,,,,,33.86311106,132.7259963,,,,,,,,382019,愛媛県松山市,,1,,1,,,,,,,"2,100 ",,,,,
382019,E3820100059201,すみれ公園,スミレコウエン,,382019,,愛媛県松山市会津町16-16,,,,,,33.86366341,132.7281126,,,,,,,,382019,愛媛県松山市,,1,,1,,,,,,,600 ,,,,,
382019,E3820100344201,たつみ公園,タツミコウエン,,382019,,愛媛県松山市辰巳町2858-8 外,,,,,,33.86665302,132.7192298,,,,,,,,382019,愛媛県松山市,,1,,1,,,,,,,"1,000 ",,,,,
382019,E3820100349201,中須賀公園,ナカスガコウエン,,382019,,愛媛県松山市中須賀1-11,,,,,,33.8646204,132.723813,,,,,,,,382019,愛媛県松山市,,1,,1,,,,,,,"2,900 ",,,,,
382019,E3820100659201,祓川公園,ハライカワコウエン,,382019,,愛媛県松山市祓川2-2065-86,,,,,,33.86043552,132.7209856,,,,,,,,382019,愛媛県松山市,,1,,1,,,,,,,"1,100 ",,,,,
382019,E3820100453201,内浜公園,ウチハマコウエン,,382019,,愛媛県松山市内浜町12-3,,,,,,33.86581205,132.727683,,,,,,,,382019,愛媛県松山市,,1,,1,,,,,,,"3,000 ",,,,,
382019,E3820100120201,宮前公園,ミヤマエコウエン,,382019,,愛媛県松山市古三津1-1479-2,,,,,,33.85694053,132.7233844,,,,,,,,382019,愛媛県松山市,,1,,1,,,,,,,"2,900 ",,,,,
382019,E3820100301201,青葉台公園,アオバダイコウエン,,382019,,愛媛県松山市青葉台44,,,,,,33.85773163,132.7342035,,,,,,,,382019,愛媛県松山市,1,1,1,1,1,,,,,,"2,700 ",,,,,
382019,E3820100205201,三津住吉公園,ミツスミヨシコウエン,,382019,,愛媛県松山市住吉2-90-1 外,,,,,,33.863645,132.716343,,,,,,,,382019,愛媛県松山市,,1,,1,,,,,,,"1,300 ",,,,,
382019,E3820100269201,西須賀公園,ニシスガコウエン,,382019,,愛媛県松山市須賀町1-10,,,,,,33.85768218,132.7175721,,,,,,,,382019,愛媛県松山市,,1,,1,,,,,,,"1,400 ",,,,,
382019,E3820100305201,すみれ野北公園,スミレノキタコウエン,,382019,,愛媛県松山市石風呂町579,,,,,,33.87835315,132.715309,,,,,,,,382019,愛媛県松山市,1,1,1,1,1,,,,,,"3,000 ",,,,,
382019,E3820100304201,すみれ野南公園,スミレノミナミコウエン,,382019,,愛媛県松山市石風呂町230-1,,,,,,33.87317784,132.7181414,,,,,,,,382019,愛媛県松山市,1,1,,1,1,,,,,,600 ,,,,,
382019,E3820100257201,新浜公園,シンハマコウエン,,382019,,愛媛県松山市新浜町1145-4 外,,,,,,33.87362763,132.713874,,,,,,,,382019,愛媛県松山市,1,1,,1,,,,,,,"2,100 ",,,,,
382019,E3820100165201,ことひら公園,コトヒラコウエン,,382019,,愛媛県松山市高浜町4丁目乙74,,,,,,33.88680659,132.7032121,,,,,,,,382019,愛媛県松山市,1,,,1,1,,,,,,500 ,,,,,
382019,E3820100167201,高浜公園,タカハマコウエン,,382019,,愛媛県松山市高浜町6-2255-1,,,,,,33.89521699,132.7076465,,,,,,,,382019,愛媛県松山市,1,,,1,,,,,,,"1,000 ",,,,,
382019,E3820100139201,観月山公園,カンゲツザンコウエン,,382019,,愛媛県松山市港山町2021,,,,,,33.86871002,132.7154274,,,,,,,,382019,愛媛県松山市,1,,,1,1,,,,,,"2,600 ",,,,,
382019,E3820100612201,太郎丸公園,タロウマルコウエン,,382019,,愛媛県松山市問屋町334-37,,,,,,33.86334038,132.7491282,,,,,,,,382019,愛媛県松山市,1,1,1,1,1,,,,,,"1,000 ",,,,,
382019,E3820100006201,安城寺西公園,アンジョウジニシコウエン,,382019,,愛媛県松山市安城寺町1334-1,,,,,,33.88165353,132.7408482,,,,,,,,382019,愛媛県松山市,,1,1,1,1,,,,,,"1,400 ",,,,,
382019,E3820100091201,久万ノ台公園,クマノダイコウエン,,382019,,愛媛県松山市久万ﾉ台乙1749-1 外,,,,,,33.8604024,132.7388951,,,,,,,,382019,愛媛県松山市,1,1,1,1,1,,,,,,"11,300 ",,,,,
382019,E3820100087201,久万ノ台緑地,クマノダイリョクチ,,382019,,愛媛県松山市久万ﾉ台1421-1,,,,,,33.85777675,132.7373549,,,,,,,,382019,愛媛県松山市,1,1,1,1,1,,,,,,"12,000 ",,,,,
382019,E3820100296201,西長戸東公園,ニシナガトヒガシコウエン,,382019,,愛媛県松山市西長戸町163-2 外,,,,,,33.86699572,132.7458287,,,,,,,,382019,愛媛県松山市,1,1,1,1,1,,,,,,"2,400 ",,,,,
382019,E3820100299201,西長戸公園,ニシナガトコウエン,,382019,,愛媛県松山市西長戸町558,,,,,,33.86637535,132.7366967,,,,,,,,382019,愛媛県松山市,1,1,1,1,1,,,,,,"2,200 ",,,,,
382019,E3820100061201,鴨川公園,カモガワコウエン,,382019,,愛媛県松山市鴨川3-1041-1,,,,,,33.87425029,132.7493929,,,,,,,,382019,愛媛県松山市,1,1,1,1,1,,,,,,"2,500 ",,,,,
382019,E3820100345201,谷町公園,タニマチコウエン,,382019,,愛媛県松山市谷町甲236,,,,,,33.88202939,132.7543172,,,,,,,,382019,愛媛県松山市,1,1,1,1,1,,,,,,"6,300 ",,,,,
382019,E3820100542201,平田公園,ヒラタコウエン,,382019,,愛媛県松山市平田町乙393-1,,,,,,33.891258,132.751311,,,,,,,,382019,愛媛県松山市,1,1,1,1,1,,,,,,"6,000 ",,,,,
382019,E3820100064201,吉藤公園,ヨシフジコウエン,,382019,,愛媛県松山市吉藤2-481-1,,,,,,33.86936626,132.7590802,,,,,,,,382019,愛媛県松山市,1,1,1,1,1,,,,,,800 ,,,,,
382019,E3820100484201,おおつか公園,オオツカコウエン,,382019,,愛媛県松山市馬木町2185,,,,,,33.89332107,132.7438914,,,,,,,,382019,愛媛県松山市,,1,,1,1,,,,,,500 ,,,,,
382019,E3820100485201,ともくに公園,モクニコウエン,,382019,,愛媛県松山市馬木町2250,,,,,,33.89153989,132.7458306,,,,,,,,382019,愛媛県松山市,,1,,1,1,,,,,,"1,200 ",,,,,
382019,E3820100482201,なかのちょう公園,ナカノチョウコウエン,,382019,,愛媛県松山市馬木町2142,,,,,,33.8932231,132.7472173,,,,,,,,382019,愛媛県松山市,,1,,1,1,,,,,,900 ,,,,,
382019,E3820100481201,むくのき公園,ムクノキコウエン,,382019,,愛媛県松山市馬木町2055,,,,,,33.89016837,132.7473782,,,,,,,,382019,愛媛県松山市,1,1,,1,1,,,,,,"1,000 ",,,,,
382019,E3820100218201,内新田公園,ウチシンデンコウエン,,382019,,愛媛県松山市勝岡町63,,,,,,33.89736611,132.7303137,,,,,,,,382019,愛媛県松山市,,1,,1,,,,,,,"3,300 ",,,,,
382019,E3820100217201,六町公園,ロクチョウコウエン,,382019,,愛媛県松山市勝岡町238,,,,,,33.90162053,132.7241929,,,,,,,,382019,愛媛県松山市,,1,,1,,,,,,,"2,200 ",,,,,
382019,E3820100216201,太衛門公園,タエモンコウエン,,382019,,愛媛県松山市勝岡町181,,,,,,33.8988622,132.7280714,,,,,,,,382019,愛媛県松山市,,1,,1,,,,,,,"5,400 ",,,,,
382019,E3820100326201,太山寺本村公園,タイサンジホンムラコウエン,,382019,,愛媛県松山市太山寺町1587-1 外,,,,,,33.88254669,132.7227447,,,,,,,,382019,愛媛県松山市,1,,1,1,1,,,,,,"1,700 ",,,,,
382019,E3820100328201,清和公園,セイワコウエン,,382019,,愛媛県松山市太山寺町2244,,,,,,33.89224797,132.7222806,,,,,,,,382019,愛媛県松山市,1,,1,1,1,,,,,,"2,100 ",,,,,
382019,E3820100324201,太山寺小山公園,タイサンジコヤマコウエン,,382019,,愛媛県松山市太山寺町1355,,,,,,33.88792183,132.7273044,,,,,,,,382019,愛媛県松山市,,1,,1,,,,,,,"2,900 ",,,,,
382019,E3820100331201,大渕公園,オオブチコウエン,,382019,,愛媛県松山市太山寺町乙168-1,,,,,,33.88441267,132.7325347,,,,,,,,382019,愛媛県松山市,1,,,1,1,,,,,,"1,500 ",,,,,
382019,E3820100648201,和気公園,ワケコウエン,,382019,,愛媛県松山市和気町1-100,,,,,,33.88982834,132.737183,,,,,,,,382019,愛媛県松山市,,1,,1,,,,,,,"3,400 ",,,,,
382019,E3820100651201,和気浜公園,ワケハマコウエン,,382019,,愛媛県松山市和気町2-989-2 外,,,,,,33.89687791,132.7343143,,,,,,,,382019,愛媛県松山市,,1,,1,,,,,,,"1,800 ",,,,,
382019,E3820100649201,和気松原公園,ワケマツバラコウエン,,382019,,愛媛県松山市和気町2-809-1 外,,,,,,33.90127706,132.7361248,,,,,,,,382019,愛媛県松山市,,1,,1,,,,,,,"1,600 ",,,,,
382019,E3820100452201,内宮公園,ウチミヤコウエン,,382019,,愛媛県松山市内宮町乙926-3,,,,,,33.89630432,132.7501593,,,,,,,,382019,愛媛県松山市,,1,,1,1,,,,,,"1,200 ",,,,,
382019,E3820100116201,権現公園,ゴンゲンコウエン,,382019,,愛媛県松山市権現町甲162-1 外,,,,,,33.90108433,132.7638115,,,,,,,,382019,愛媛県松山市,1,1,1,1,1,,,,,,"2,000 ",,,,,
382019,E3820100425201,東大栗公園,ヒガシオオグリコウエン,,382019,,愛媛県松山市東大栗町甲1273-1,,,,,,33.90818781,132.7872221,,,,,,,,382019,愛媛県松山市,1,,1,1,1,,,,,,"4,500 ",,,,,
382019,E3820100523201,松尾公園,マツオコウエン,,382019,,愛媛県松山市福角町乙929 外,,,,,,33.89569478,132.7557199,,,,,,,,382019,愛媛県松山市,1,,1,1,1,,,,,,"1,500 ",,,,,
382019,E3820100522201,中筋公園,ナカスジコウエン,,382019,,愛媛県松山市福角町1553,,,,,,33.90203697,132.7547103,,,,,,,,382019,愛媛県松山市,,1,1,1,1,,,,,,"1,000 ",,,,,
382019,E3820100526201,松尾西公園,マツオニシコウエン,,382019,,愛媛県松山市福角町甲51-117,,,,,,33.89604606,132.7512268,,,,,,,,382019,愛媛県松山市,1,1,1,1,1,,,,,,"1,000 ",,,,,
382019,E3820100595201,堀江中央公園,ホリエチュウオウコウエン,,382019,,愛媛県松山市堀江町1569-1 外,,,,,,33.9044592,132.7501179,,,,,,,,382019,愛媛県松山市,,1,,1,,,,,,,"2,400 ",,,,,
382019,E3820100594201,堀江東公園,ホリエヒガシコウエン,,382019,,愛媛県松山市堀江町1466 外,,,,,,33.90670536,132.7544255,,,,,,,,382019,愛媛県松山市,,1,,1,,,,,,,"2,400 ",,,,,
382019,E3820100596201,いつき公園,イツキコウエン,,382019,,愛媛県松山市堀江町766-37,,,,,,33.9018568,132.7414758,,,,,,,,382019,愛媛県松山市,,1,,1,,,,,,,"1,100 ",,,,,
382019,E3820100600201,大西第二区公園,オオニシダイニクコウエン,,382019,,愛媛県松山市堀江町甲519-2,,,,,,33.89947471,132.7420713,,,,,,,,382019,愛媛県松山市,,1,,1,,,,,,,"1,100 ",,,,,
382019,E3820100552201,保免公園,ホウメンコウエン,,382019,,愛媛県松山市保免中1-210-3,,,,,,33.818464,132.748967,,,,,,,,382019,愛媛県松山市,,1,1,1,1,,,,,,"2,300 ",,,,,
382019,E3820100637201,余戸南であい公園,ヨウゴミナミデアイコウエン,,382019,,愛媛県松山市余戸南4-1710-2外,,,,,,33.80978919,132.7272087,,,,,,,,382019,愛媛県松山市,,1,1,1,1,,,,,,"1,900 ",,,,,
382019,E3820100632201,余戸東すみれ公園,ヨウゴヒガシスミレコウエン,,382019,,愛媛県松山市余戸東3-1082-2 外,,,,,,33.81181307,132.7332665,,,,,,,,382019,愛媛県松山市,,1,1,1,1,,,,,,"2,000 ",,,,,
382019,E3820100635201,余戸東竹の宮公園,ヨウゴヒガシタケノミヤコウエン,,382019,,愛媛県松山市余戸東5-299-5 外,,,,,,33.81686232,132.7373637,,,,,,,,382019,愛媛県松山市,,1,1,1,1,,,,,,"1,500 ",,,,,
382019,E3820100630201,余戸中新開公園,ヨウゴナカシンカイコウエン,,382019,,愛媛県松山市余戸中5-894-1 外,,,,,,33.816296,132.73215,,,,,,,,382019,愛媛県松山市,,1,1,1,1,,,,,,"2,000 ",,,,,
382019,E3820100627201,余戸西さくら公園,ヨウゴニシサクラコウエン,,382019,,愛媛県松山市余戸西2-2279-1 外,,,,,,33.81418775,132.7229739,,,,,,,,382019,愛媛県松山市,,1,,1,1,,,,,,"2,200 ",,,,,
382019,E3820100189201,松山中央公園,マツヤマチュウオウコウエン,,382019,,愛媛県松山市市坪西町625-1 外,,,,,,33.80938,132.744676,,,,,,,,382019,愛媛県松山市,,1,1,1,1,1,,,,,"188,202 ",,,,,
382019,E3820100623201,鷲ケ巣公園,ワシガスコウエン,,382019,,愛媛県松山市由良町418-1 外,,,,,,33.89952967,132.6678842,,,,,,,,382019,愛媛県松山市,1,1,,1,,,,,,,"1,200 ",,,,,
382019,E3820100621201,由良公園,ユラコウエン,,382019,,愛媛県松山市由良町1032-1 外,,,,,,33.9039732,132.6808715,,,,,,,,382019,愛媛県松山市,1,,,1,,,,,,,"1,600 ",,,,,
382019,E3820100614201,門田公園,カドタコウエン,,382019,,愛媛県松山市門田町290-2,,,,,,33.90428584,132.6884825,,,,,,,,382019,愛媛県松山市,1,,,1,,,,,,,"2,600 ",,,,,
382019,E3820100495201,泊公園,トマリコウエン,,382019,,愛媛県松山市泊町533-1,,,,,,33.87888914,132.6830188,,,,,,,,382019,愛媛県松山市,1,1,,1,,,,,,,"1,700 ",,,,,
382019,E3820100498201,御手洗公園,ミタライコウエン,,382019,,愛媛県松山市泊町91-5地先,,,,,,33.87312148,132.6696748,,,,,,,,382019,愛媛県松山市,1,,,1,,,,,,,"1,400 ",,,,,
382019,E3820100560201,北久米七区公園,キタクメナナクコウエン,,382019,,愛媛県松山市北久米町644,,,,,,33.81740187,132.7954547,,,,,,,,382019,愛媛県松山市,1,1,1,1,1,,,,,,"2,300 ",,,,,
382019,E3820100559201,北久米八区公園,キタクメハチクコウエン,,382019,,愛媛県松山市北久米町1069-1 外,,,,,,33.81241452,132.7914261,,,,,,,,382019,愛媛県松山市,,1,1,1,1,,,,,,"1,300 ",,,,,
382019,E3820100642201,来住公園,キシコウエン,,382019,,愛媛県松山市来住町983-3,,,,,,33.80561912,132.7998555,,,,,,,,382019,愛媛県松山市,,1,1,1,1,,,,,,"2,900 ",,,,,
382019,E3820100081201,北窪田公園,キタクボタコウエン,,382019,,愛媛県松山市久米窪田町938-1,,,,,,33.80687401,132.8111239,,,,,,,,382019,愛媛県松山市,,1,1,1,1,,,,,,"1,800 ",,,,,
382019,E3820100151201,たかい公園,タカイコウエン,,382019,,愛媛県松山市高井町1105 外,,,,,,33.79525232,132.812292,,,,,,,,382019,愛媛県松山市,,1,1,1,1,,,,,,"1,800 ",,,,,
382019,E3820100462201,南久米公園,ミナミクメコウエン,,382019,,愛媛県松山市南久米町594 外,,,,,,33.81253802,132.8028618,,,,,,,,382019,愛媛県松山市,,1,1,1,1,,,,,,"9,400 ",,,,,
382019,E3820100463201,日尾公園,ヒオコウエン,,382019,,愛媛県松山市南久米町乙1-1,,,,,,33.818826,132.80547,,,,,,,,382019,愛媛県松山市,1,1,1,1,1,,,,,,"25,200 ",,,,,
382019,E3820100473201,南土居公園,ミナミドイコウエン,,382019,,愛媛県松山市南土居町239-1,,,,,,33.79624526,132.802746,,,,,,,,382019,愛媛県松山市,,1,1,1,1,,,,,,"1,800 ",,,,,
382019,E3820100337201,浄土寺公園,ジョウドジコウエン,,382019,,愛媛県松山市鷹子町333-1 外,,,,,,33.81744505,132.8087473,,,,,,,,382019,愛媛県松山市,1,1,1,1,1,,,,,,"2,500 ",,,,,
382019,E3820100673201,湯の山東第１公園,ユノヤマヒガシダイイチコウエン,,382019,,愛媛県松山市湯の山東1-8,,,,,,33.871712,132.818224,,,,,,,,382019,愛媛県松山市,1,1,1,1,1,,,,,,"1,800 ",,,,,
382019,E3820100437201,湯の山東第２公園,ユノヤマヒガシダイニコウエン,,382019,,愛媛県松山市湯の山東1-7,,,,,,33.87120272,132.8185725,,,,,,,,382019,愛媛県松山市,1,1,1,1,1,,,,,,"2,700 ",,,,,
382019,E3820100439201,湯の山東第３公園,ユノヤマヒガシダイサンコウエン,,382019,,愛媛県松山市湯の山東5-6,,,,,,33.87039211,132.8191304,,,,,,,,382019,愛媛県松山市,1,1,1,1,1,,,,,,"2,700 ",,,,,
382019,E3820100438201,湯の山東第４公園,ユノヤマヒガシダイヨンコウエン,,382019,,愛媛県松山市湯の山東2-8,,,,,,33.87253633,132.8213496,,,,,,,,382019,愛媛県松山市,1,1,1,1,1,,,,,,"1,000 ",,,,,
382019,E3820100606201,湧ケ淵公園,ワキガフチコウエン,,382019,,愛媛県松山市末町乙231-1 外,,,,,,33.87167269,132.8279691,,,,,,,,382019,愛媛県松山市,1,1,1,1,1,,,,,,"15,300 ",,,,,
382019,E3820100256201,湯山公園,ユノヤマコウエン,,382019,,愛媛県松山市食場町甲316-23 外,,,,,,33.86265015,132.8152794,,,,,,,,382019,愛媛県松山市,1,,1,1,1,,,,,,"1,400 ",,,,,
382019,E3820100168201,たかの夢公園,タカノユメコウエン,,382019,,愛媛県松山市高野町甲76-4,,,,,,33.85484919,132.8115722,,,,,,,,382019,愛媛県松山市,1,,1,1,1,,,,,,"1,200 ",,,,,
382019,E3820100143201,八白公園,ハッパクコウエン,,382019,,愛媛県松山市溝辺町甲135,,,,,,33.84742287,132.8069588,,,,,,,,382019,愛媛県松山市,1,1,1,1,1,,,,,,"3,100 ",,,,,
382019,E3820100149201,溝辺公園,ミゾノベコウエン,,382019,,愛媛県松山市溝辺町甲721-4 外,,,,,,33.85328465,132.8033225,,,,,,,,382019,愛媛県松山市,1,,1,1,1,,,,,,"1,800 ",,,,,
382019,E3820100146201,神前公園,カミノマエコウエン,,382019,,愛媛県松山市溝辺町甲437-4,,,,,,33.85175897,132.8074828,,,,,,,,382019,愛媛県松山市,,1,1,1,1,,,,,,"2,300 ",,,,,
382019,E3820100432201,湯の山西公園,ユノヤマニシコウエン,,382019,,愛媛県松山市湯の山1-12-1 外,,,,,,33.8682589,132.8138206,,,,,,,,382019,愛媛県松山市,1,1,1,1,1,,,,,,"1,700 ",,,,,
382019,E3820100433201,湯の山第２公園,ユノヤマダイニコウエン,,382019,,愛媛県松山市湯の山2-10-1,,,,,,33.86988877,132.8138142,,,,,,,,382019,愛媛県松山市,1,1,1,1,1,,,,,,"5,900 ",,,,,
382019,E3820100434201,湯の山北公園,ユノヤマキタコウエン,,382019,,愛媛県松山市湯の山3-11-1 外,,,,,,33.87254175,132.8146527,,,,,,,,382019,愛媛県松山市,1,1,1,1,1,,,,,,"1,500 ",,,,,
382019,E3820100435201,湯の山第１公園,ユノヤマダイイチコウエン,,382019,,愛媛県松山市湯の山5-1-5,,,,,,33.86904697,132.8171992,,,,,,,,382019,愛媛県松山市,1,1,1,1,1,,,,,,"2,000 ",,,,,
382019,E3820100436201,湯の山東公園,ユノヤマヒガシコウエン,,382019,,愛媛県松山市湯の山8-16,,,,,,33.87142545,132.8169953,,,,,,,,382019,愛媛県松山市,1,1,1,1,1,,,,,,"1,400 ",,,,,
382019,E3820100500201,白水台公園,ハクスイダイコウエン,,382019,,愛媛県松山市白水台2-12-6,,,,,,33.8749606,132.7804135,,,,,,,,382019,愛媛県松山市,1,1,1,1,1,,,,,,"2,000 ",,,,,
382019,E3820100501201,白水台北公園,ハクスイダイキタコウエン,,382019,,愛媛県松山市白水台4-22-7,,,,,,33.87856813,132.780215,,,,,,,,382019,愛媛県松山市,1,1,1,1,1,,,,,,"6,200 ",,,,,
382019,E3820100502201,白水台南公園,ハクスイダイミナミコウエン,,382019,,愛媛県松山市白水台5-2-13,,,,,,33.87170963,132.7786123,,,,,,,,382019,愛媛県松山市,1,1,1,1,1,,,,,,"1,100 ",,,,,
382019,E3820100503201,白水台西公園,ハクスイダイニシコウエン,,382019,,愛媛県松山市白水台6-20,,,,,,33.87543783,132.7769913,,,,,,,,382019,愛媛県松山市,1,1,1,1,1,,,,,,"1,700 ",,,,,
382019,E3820100037201,向陽第２公園,コウヨウダイニコウエン,,382019,,愛媛県松山市下伊台町489-102,,,,,,33.87518635,132.8096238,,,,,,,,382019,愛媛県松山市,1,,1,1,1,,,,,,"1,500 ",,,,,
382019,E3820100242201,伊台本村公園,イダイホンムラコウエン,,382019,,愛媛県松山市上伊台町181-3,,,,,,33.886466,132.793357,,,,,,,,382019,愛媛県松山市,1,,1,1,1,,,,,,"1,300 ",,,,,
382019,E3820100586201,北梅本小山公園,キタウメモトコヤマコウエン,,382019,,愛媛県松山市北梅本町2481-1,,,,,,33.81377705,132.8466084,,,,,,,,382019,愛媛県松山市,,1,1,1,1,,,,,,"2,600 ",,,,,
382019,E3820100585201,向井公園,ムカイコウエン,,382019,,愛媛県松山市北梅本町2145 外,,,,,,33.80994392,132.8418878,,,,,,,,382019,愛媛県松山市,,1,1,1,1,,,,,,"1,700 ",,,,,
382019,E3820100588201,小野谷公園,オノダニコウエン,,382019,,愛媛県松山市北梅本町2720 外,,,,,,33.81924565,132.8488347,,,,,,,,382019,愛媛県松山市,,,1,1,1,,,,,,"2,000 ",,,,,
382019,E3820100591201,太尺寺公園,タイシャクジコウエン,,382019,,愛媛県松山市北梅本町甲25,,,,,,33.8056515,132.857069,,,,,,,,382019,愛媛県松山市,1,1,1,1,1,,,,,,600 ,,,,,
382019,E3820100475201,南梅本公園,ミナミウメモトコウエン,,382019,,愛媛県松山市南梅本町225-5 外,,,,,,33.79969458,132.8395812,,,,,,,,382019,愛媛県松山市,,1,1,1,1,,,,,,"2,000 ",,,,,
382019,E3820100271201,小野公園,オノコウエン,,382019,,愛媛県松山市水泥町839,,,,,,33.8057847,132.8346795,,,,,,,,382019,愛媛県松山市,,1,1,1,1,,,,,,"3,100 ",,,,,
382019,E3820100536201,平井公園,ヒライコウエン,,382019,,愛媛県松山市平井町甲2520,,,,,,33.81015908,132.8270114,,,,,,,,382019,愛媛県松山市,,1,1,1,1,,,,,,"2,400 ",,,,,
382019,E3820100538201,五楽公園,ゴウラクコウエン,,382019,,愛媛県松山市平井町甲541-1,,,,,,33.81638113,132.8330034,,,,,,,,382019,愛媛県松山市,1,1,1,1,1,,,,,,"1,100 ",,,,,
382019,E3820100537201,東鷹の子公園,ヒガシタカノココウエン,,382019,,愛媛県松山市平井町甲3157-87,,,,,,33.80584884,132.8163416,,,,,,,,382019,愛媛県松山市,,1,1,1,1,,,,,,"2,500 ",,,,,
382019,E3820100474201,梅西公園,ウメニシコウエン,,382019,,愛媛県松山市南梅本町1048-4,,,,,,33.79966975,132.832444,,,,,,,,382019,愛媛県松山市,,1,1,1,1,,,,,,300 ,,,,,
382019,E3820100016201,三島公園,ミシマコウエン,,382019,,愛媛県松山市井門町934,,,,,,33.79171139,132.783443,,,,,,,,382019,愛媛県松山市,,1,1,1,1,,,,,,"2,700 ",,,,,
382019,E3820100467201,杖ノ淵公園,ジョウノフチコウエン,,382019,,愛媛県松山市南高井町1352 外,,,,,,33.79175088,132.8109859,,,,,,,,382019,愛媛県松山市,,1,1,1,1,,,,,,"12,100 ",,,,,
382019,E3820100262201,森松本村公園,モリマツホンムラコウエン,,382019,,愛媛県松山市森松町847-1,,,,,,33.79364941,132.7976668,,,,,,,,382019,愛媛県松山市,,1,1,1,1,,,,,,"2,000 ",,,,,
382019,E3820100396201,天山公園,アマヤマモウエン,,382019,,愛媛県松山市天山3-130-2 外,,,,,,33.81976294,132.7745173,,,,,,,,382019,愛媛県松山市,,1,1,1,1,,,,,,"1,400 ",,,,,
382019,E3820100397201,土居公園,ドイコウエン,,382019,,愛媛県松山市土居町1026-1 外,,,,,,33.79857037,132.7902555,,,,,,,,382019,愛媛県松山市,,1,1,1,1,,,,,,"1,900 ",,,,,
382019,E3820100277201,星ヶ岡公園（東山古墳公園）,ホシガオカコウエンヒガシヤマコフンコウエン,,382019,,愛媛県松山市星岡町,,,,,,33.81483526,132.7848808,,,,,,,,382019,愛媛県松山市,,1,1,1,1,,,,,,"23,100 ",,,,,
382019,E3820100379201,朝生田公園,アソダコウエン,,382019,,愛媛県松山市朝生田町6-2 外,,,,,,33.8196643,132.7651795,,,,,,,,382019,愛媛県松山市,,1,1,1,1,,,,,,"2,500 ",,,,,
382019,E3820100674201,西石井公園,ニシイシイコウエン,,382019,,愛媛県松山市西石井5-318-6 外,,,,,,33.81498,132.770491,,,,,,,,382019,愛媛県松山市,,1,1,1,1,,,,,,"2,500 ",,,,,
382019,E3820100420201,東山古墳公園(星ヶ岡西公園),ヒガシヤマコフンコウエンホシガオカニシコウエン,,382019,,愛媛県松山市東石井3丁目乙20,,,,,,33.81538576,132.7808397,,,,,,,,382019,愛媛県松山市,,,1,1,1,,,,,,"1,100 ",,,,,
382019,E3820100656201,和泉公園,イズミコウエン,,382019,,愛媛県松山市和泉北3-669-2,,,,,,33.81917315,132.7566055,,,,,,,,382019,愛媛県松山市,,1,1,1,1,,,,,,"1,300 ",,,,,
382019,E3820100131201,北古川公園,キタフルカワコウエン,,382019,,愛媛県松山市古川北1-135-1,,,,,,33.81392043,132.7627644,,,,,,,,382019,愛媛県松山市,,1,1,1,1,,,,,,"1,600 ",,,,,
382019,E3820100130201,古川南公園,フルカワミナミコウエン,,382019,,愛媛県松山市古川南3-792-2 外,,,,,,33.80495561,132.7638528,,,,,,,,382019,愛媛県松山市,,1,1,1,1,,,,,,"1,800 ",,,,,
382019,E3820100126201,古川公園,フルカワコウエン,,382019,,愛媛県松山市古川西2-1044-1,,,,,,33.80793499,132.7587037,,,,,,,,382019,愛媛県松山市,,1,1,1,1,,,,,,"2,500 ",,,,,
382019,E3820100171201,今在家公園,イマザイケコウエン,,382019,,愛媛県松山市今在家3-313-1 外,,,,,,33.80460022,132.790841,,,,,,,,382019,愛媛県松山市,,1,1,1,1,,,,,,"2,000 ",,,,,
382019,E3820100654201,和泉南公園,イズミミナミコウエン,,382019,,愛媛県松山市和泉南4-404,,,,,,33.815376,132.759143,,,,,,,,382019,愛媛県松山市,,1,1,1,1,,,,,,"1,400 ",,,,,
382019,E3820100097201,椿公園,ツバキコウエン,,382019,,愛媛県松山市居相4-274-4,,,,,,33.80880115,132.7720277,,,,,,,,382019,愛媛県松山市,,1,1,1,1,,,,,,"1,000 ",,,,,
382019,E3820100555201,白山の杜公園,ハクザンノモリコウエン,,382019,,愛媛県松山市北井門1-101-1,,,,,,33.80603524,132.7791906,,,,,,,,382019,愛媛県松山市,,1,1,1,1,,,,,,"2,300 ",,,,,
382019,E3820100023201,越智公園,オチコウエン,,382019,,愛媛県松山市越智3-221-1 外,,,,,,33.81036808,132.7802465,,,,,,,,382019,愛媛県松山市,,1,1,1,1,,,,,,"2,300 ",,,,,
382019,E3820100583201,北土居公園,キタドイコウエン,,382019,,愛媛県松山市北土居4-319-2,,,,,,33.80759582,132.7852675,,,,,,,,382019,愛媛県松山市,,1,1,1,1,,,,,,"1,900 ",,,,,
382019,E3820100429201,東方中央公園,ヒガシカタチュウオウコウエン,,382019,,愛媛県松山市東方町甲1481-1 外,,,,,,33.7689447,132.8215749,,,,,,,,382019,愛媛県松山市,1,1,1,1,1,,,,,,"1,700 ",,,,,
382019,E3820100426201,政友公園,マサトモコウエン,,382019,,愛媛県松山市東方町2258-1 外,,,,,,33.77657594,132.8217886,,,,,,,,382019,愛媛県松山市,,1,1,1,1,,,,,,"3,000 ",,,,,
382019,E3820100390201,津吉公園,ツヨシコウエン,,382019,,愛媛県松山市津吉町乙15,,,,,,33.77145982,132.840148,,,,,,,,382019,愛媛県松山市,1,,1,1,1,,,,,,"3,600 ",,,,,
382019,E3820100371201,中野公園,ナカノコウエン,,382019,,愛媛県松山市中野町甲307,,,,,,33.77907841,132.8287139,,,,,,,,382019,愛媛県松山市,,1,1,1,1,,,,,,"4,600 ",,,,,
382019,E3820100300201,西野公園,ニシノコウエン,,382019,,愛媛県松山市西野町甲441,,,,,,33.76370423,132.8021323,,,,,,,,382019,愛媛県松山市,1,,1,1,1,,,,,,"1,400 ",,,,,
382019,E3820100249201,上野団地公園,ウエノダンチコウエン,,382019,,愛媛県松山市上野町乙107-17,,,,,,33.77503936,132.7983572,,,,,,,,382019,愛媛県松山市,1,1,1,1,1,,,,,,"2,100 ",,,,,
382019,E3820100248201,上野町中組公園,ウエノマチナカグミコウエン,,382019,,愛媛県松山市上野町504-4,,,,,,33.77197594,132.8040489,,,,,,,,382019,愛媛県松山市,1,1,1,1,1,,,,,,"1,700 ",,,,,
382019,E3820100250201,上野町今市公園,ウエノマチイマイチコウエン,,382019,,愛媛県松山市上野町甲1434-2 外,,,,,,33.77645413,132.809872,,,,,,,,382019,愛媛県松山市,,1,1,1,1,,,,,,"1,900 ",,,,,
382019,E3820100247201,県立総合運動公園,ケンリツソウゴウウンドウコウエン,,382019,,愛媛県松山市上野町,,,,,,33.76878309,132.7960291,,,,,,,,382019,愛媛県松山市,1,1,1,1,1,1,,,,,"115,794 ",,,,,
382019,E3820100112201,恵原公園,エバラコウエン,,382019,,愛媛県松山市恵原町甲445-1,,,,,,33.76592346,132.8092623,,,,,,,,382019,愛媛県松山市,1,1,1,1,1,,,,,,"2,100 ",,,,,
382019,E3820100254201,浄瑠璃公園,ジョウルリコウエン,,382019,,愛媛県松山市浄瑠璃町甲1040-4,,,,,,33.75556962,132.8197648,,,,,,,,382019,愛媛県松山市,1,,1,1,1,,,,,,"3,300 ",,,,,
382019,E3820100076201,奥久谷公園,オククタニコウエン,,382019,,愛媛県松山市久谷町乙1067-1,,,,,,33.72368989,132.8414387,,,,,,,,382019,愛媛県松山市,1,1,1,1,1,,,,,,"8,000 ",,,,,
382019,E3820100073201,山口公園,ヤマグチコウエン,,382019,,愛媛県松山市久谷町615-1 外,,,,,,33.73565066,132.8309003,,,,,,,,382019,愛媛県松山市,1,,1,1,1,,,,,,"2,100 ",,,,,
382019,E3820100103201,窪野公園,クボノコウエン,,382019,,愛媛県松山市窪野町甲295-1,,,,,,33.74042768,132.8382987,,,,,,,,382019,愛媛県松山市,1,,1,1,1,,,,,,"2,400 ",,,,,
382019,E3820100303201,石手川緑地,イシテガワリョクチ,,382019,,愛媛県松山市石手川河川敷,,,,,,33.82856506,132.7670261,,,,,,,,382019,愛媛県松山市,,1,1,1,1,1,,,,,"298,400 ",,,,,
382019,E3820100206201,重信川緑地,シゲノブガワリョクチ,,382019,,愛媛県松山市重信川河川敷,,,,,,33.78473989,132.8098342,,,,,,,,382019,愛媛県松山市,,1,1,1,1,1,,,,,"125,500 ",,,,,
382019,E3820100312201,味栗公園,ミクリコウエン,,382019,,愛媛県松山市浅海原甲279-1外3,,,,,,34.00193294,132.7946356,,,,,,,,382019,愛媛県松山市,1,,1,1,1,,,,,,"1,700 ",,,,,
382019,E3820100226201,小山田公園,オヤマダコウエン,,382019,,愛媛県松山市小山田甲331-1外1,,,,,,33.99163659,132.8439168,,,,,,,,382019,愛媛県松山市,1,,1,1,1,,,,,,"1,000 ",,,,,
382019,E3820100514201,尾儀原公園,オギハラコウエン,,382019,,愛媛県松山市尾儀原甲49-3外1,,,,,,33.97542176,132.8286785,,,,,,,,382019,愛媛県松山市,1,,1,1,1,,,,,,600 ,,,,,
382019,E3820100238201,庄公園,ショウコウエン,,382019,,愛媛県松山市庄甲291,,,,,,33.97190711,132.8023647,,,,,,,,382019,愛媛県松山市,,1,1,1,1,,,,,,"1,700 ",,,,,
382019,E3820100361201,中通みんなの広場,ナカドオリミンナノヒロバ,,382019,,愛媛県松山市中通甲312-1外5,,,,,,33.9781234,132.7895622,,,,,,,,382019,愛媛県松山市,,1,1,1,1,,,,,,"1,300 ",,,,,
382019,E3820100042201,北条公園（法橋運動広場）,コウジョウコウエンホッキョウウンドウヒロバ,,382019,,愛媛県松山市下難波甲18-10,,,,,,33.9835598,132.7736915,,,,,,,,382019,愛媛県松山市,,1,,1,1,,,,,,"21,700 ",,,,,
382019,E3820100353201,正岡松尾公園,マサオカマツオコウエン,,382019,,愛媛県松山市中西外686-1,,,,,,33.96179042,132.786323,,,,,,,,382019,愛媛県松山市,1,1,1,1,1,,,,,,"2,200 ",,,,,
382019,E3820100354201,河野別府公園（ゲートボール場）,コウノベップコウエンゲートボールジョウ,,382019,,愛媛県松山市中西外966 外4,,,,,,33.95903592,132.7820238,,,,,,,,382019,愛媛県松山市,1,1,1,1,1,,,,,,"5,300 ",,,,,
382019,E3820100569201,風早タウン公園,カザハヤタウンコウエン,,382019,,愛媛県松山市北条20-152,,,,,,33.97923435,132.7832009,,,,,,,,382019,愛媛県松山市,,1,1,1,1,,,,,,"2,200 ",,,,,
382019,E3820100581201,新開公園,シンガイコウエン,,382019,,愛媛県松山市北条辻961-1,,,,,,33.96406846,132.7746232,,,,,,,,382019,愛媛県松山市,,1,,1,,,,,,,"2,600 ",,,,,
382019,E3820100573201,新開浜公園,シンガイハマコウエン,,382019,,愛媛県松山市北条辻1278,,,,,,33.96597713,132.7718928,,,,,,,,382019,愛媛県松山市,,1,,1,1,,,,,,700 ,,,,,
382019,E3820100574201,東町浦公園,ヒガシマチウラコウエン,,382019,,愛媛県松山市北条辻1443-11,,,,,,33.97595654,132.7736867,,,,,,,,382019,愛媛県松山市,,1,,1,,,,,,,"2,600 ",,,,,
382019,E3820100055201,河野別府公園（北条文化の森公園）,コウノベップコウエンブンカノモリコウエン,,382019,,愛媛県松山市河野別府921-1,,,,,,33.95739097,132.7812024,,,,,,,,382019,愛媛県松山市,1,1,1,1,1,,,,,,"64,500 ",,,,,
382019,E3820100619201,西ノ下公園（柳原末広第一公園）,ニシノゲコウエンヤナギハラスエヒロダイイチコウエン,,382019,,愛媛県松山市柳原901,,,,,,33.95962179,132.7732099,,,,,,,,382019,愛媛県松山市,,1,,1,,,,,,,"2,200 ",,,,,
382019,E3820100321201,善応寺農村公園,ゼンオウジノウソンコウエン,,382019,,愛媛県松山市善応寺甲388,,,,,,33.94961233,132.7930683,,,,,,,,382019,愛媛県松山市,,1,1,1,1,,,,,,"1,900 ",,,,,
382019,E3820100549201,河野公園,コウノコウエン,,382019,,愛媛県松山市片山228-3,,,,,,33.95134771,132.7695967,,,,,,,,382019,愛媛県松山市,,1,,1,,,,,,,"2,400 ",,,,,
382019,E3820100050201,河野中須賀緑地,コウノナカスカリョクチ,,382019,,愛媛県松山市河野中須賀316-2,,,,,,33.94512929,132.7678692,,,,,,,,382019,愛媛県松山市,,1,,1,,,,,,,200 ,,,,,
382019,E3820100137201,光洋台緑地Ａ,コウヨウダイリョクチエー,,382019,,愛媛県松山市光洋台3-34,,,,,,33.92071111,132.7621713,,,,,,,,382019,愛媛県松山市,1,,1,1,1,,,,,,600 ,,,,,
382019,E3820100138201,光洋台緑地Ｂ,コウヨウダイリョクチビー,,382019,,愛媛県松山市光洋台7-58,,,,,,33.92309042,132.7617099,,,,,,,,382019,愛媛県松山市,1,,1,1,1,,,,,,"2,700 ",,,,,
382019,E3820100136201,光洋台緑地Ｃ,コウヨウダイリョクチシー,,382019,,愛媛県松山市光洋台1-68,,,,,,33.92400512,132.764934,,,,,,,,382019,愛媛県松山市,1,,1,1,1,,,,,,300 ,,,,,
382019,E3820100083201,久保公園,クボコウエン,,382019,,愛媛県松山市久保399-1,,,,,,33.93977683,132.7657698,,,,,,,,382019,愛媛県松山市,,1,,1,,,,,,,"1,900 ",,,,,
382019,E3820100004201,安岡避難地,ヤスオカヒナンチ,,382019,,愛媛県松山市安岡甲64,,,,,,33.93346794,132.7747488,,,,,,,,382019,愛媛県松山市,1,1,1,1,1,,,,,,"12,500 ",,,,,
382019,E3820100200201,泉団地緑地,イズミダンチリョクチ,,382019,,愛媛県松山市鹿峰136-2外,,,,,,33.93905791,132.7726577,,,,,,,,382019,愛媛県松山市,,1,1,1,1,,,,,,600 ,,,,,
382019,E3820100472201,松山商業高等学校第２グラウンド,マツヤマショウギョウコウトウガッコウダイニグラウンド,,382019,,愛媛県松山市南斎院町乙11-2外,,,,,,33.8456354,132.7332534,,,,,,,,382019,愛媛県松山市,1,1,1,1,1,,,,,,"18,200 ",,,,,
382019,E3820100182201,愛媛大学山越運動場,エヒメダイガクヤマゴエウンドウジョウ,,382019,,愛媛県松山市山越4-11-10,,,,,,33.86216559,132.7544919,,,,,,,,382019,愛媛県松山市,,1,1,1,1,,,,,,"60,100 ",,,,,
382019,E3820100089201,松山大学久万ノ台グラウンド,マツヤマダイガククマノダイグラウンド,,382019,,愛媛県松山市久万ﾉ台1644,,,,,,33.86474775,132.7376076,,,,,,,,382019,愛媛県松山市,1,1,1,1,1,,,,,,"46,200 ",,,,,
382019,E3820100069201,松山少年鑑別所敷地内駐車場,マツヤマショウネンカンベツショシキチナイチュウシャジョウ,,382019,,愛媛県松山市吉野町3860,,,,,,33.86059885,132.7340332,,,,,,,,382019,愛媛県松山市,1,1,1,1,1,,,,,,970 ,,,,,
382019,E3820100384201,長師グラウンド,ナガシグラウンド,,382019,,愛媛県松山市長師156-1,,,,,,33.9571415,132.6252388,,,,,,,,382019,愛媛県松山市,1,1,,1,,,,,,,"1,400 ",,,,,
382019,E3820100661201,西中港多目的広場,ニシナカコウタモクテキヒロバ,,382019,,愛媛県松山市饒甲147-1,,,,,,33.98420823,132.6051973,,,,,,,,382019,愛媛県松山市,1,,,1,1,,,,,,"2,496 ",,,,,
382019,E3820100480201,番町小学校グラウンド,バンチョウショウガッコウグラウンド,,382019,,愛媛県松山市二番町4-6-1,,,,,,33.83917905,132.7663793,,,,,,,,382019,愛媛県松山市,,1,1,1,1,,,,1,,"6,516 ",,,,,
382019,E3820100528201,東雲小学校グラウンド,シノノメショウガッコウグラウンド,,382019,,愛媛県松山市文京町2-1,,,,,,33.84931674,132.7747155,,,,,,,,382019,愛媛県松山市,,1,1,1,1,,,,1,,"6,241 ",,,,,
382019,E3820100440201,八坂小学校グラウンド,ヤサカショウガッコウグラウンド,,382019,,愛媛県松山市湯渡町4-20,,,,,,33.83927572,132.7823088,,,,,,,,382019,愛媛県松山市,,1,1,1,1,,,,1,,"7,695 ",,,,,
382019,E3820100222201,素鵞小学校グラウンド,ソガショウガッコウグラウンド,,382019,,愛媛県松山市小坂1-4-48,,,,,,33.83421725,132.7798746,,,,,,,,382019,愛媛県松山市,,1,1,1,1,,,,1,,"7,229 ",,,,,
382019,E3820100403201,雄郡小学校グラウンド,ユウグンショウガッコウグラウンド,,382019,,愛媛県松山市土橋町1,,,,,,33.8318661,132.7581863,,,,,,,,382019,愛媛県松山市,,1,1,1,1,,,,1,,"6,918 ",,,,,
382019,E3820100399201,双葉小学校グラウンド,フタバショウガッコウグラウンド,,382019,,愛媛県松山市土居田町123-3,,,,,,33.82343493,132.7534552,,,,,,,,382019,愛媛県松山市,,1,1,1,1,,,,1,,"9,376 ",,,,,
382019,E3820100268201,たちばな小学校グラウンド,タチバナショウガッコウグラウンド,,382019,,愛媛県松山市針田町209-1,,,,,,33.82296491,132.7340215,,,,,,,,382019,愛媛県松山市,,1,1,1,1,,,,1,,"12,378 ",,,,,
382019,E3820100308201,新玉小学校グラウンド,アラタマショウガッコウグラウンド,,382019,,愛媛県松山市千舟町8-89,,,,,,33.83620032,132.7538595,,,,,,,,382019,愛媛県松山市,,1,1,1,1,,,,1,,"8,997 ",,,,,
382019,E3820100092201,味酒小学校グラウンド,ミサケショウガッコウグラウンド,,382019,,愛媛県松山市宮西2-2-21,,,,,,33.84763794,132.7533506,,,,,,,,382019,愛媛県松山市,,1,1,1,1,,,,1,,"5,503 ",,,,,
382019,E3820100283201,清水小学校グラウンド,シミズショウガッコウグラウンド,,382019,,愛媛県松山市清水町3-15,,,,,,33.85199769,132.7679934,,,,,,,,382019,愛媛県松山市,,1,1,1,1,,,,1,,"6,950 ",,,,,
382019,E3820100181201,姫山小学校グラウンド,ヒメヤマショウガッコウグラウンド,,382019,,愛媛県松山市山越3-800,,,,,,33.86440788,132.7635238,,,,,,,,382019,愛媛県松山市,1,,1,1,1,,,,1,,"5,488 ",,,,,
382019,E3820100108201,桑原小学校グラウンド,クワバラショウガッコウグラウンド,,382019,,愛媛県松山市桑原3-7-27,,,,,,33.83471669,132.7946,,,,,,,,382019,愛媛県松山市,,1,1,1,1,,,,1,,"8,105 ",,,,,
382019,E3820100302201,道後小学校グラウンド,ドウゴショウガッコウグラウンド,,382019,,愛媛県松山市石手4-10-5,,,,,,33.84498638,132.7917087,,,,,,,,382019,愛媛県松山市,,1,1,1,1,,,,1,,"4,306 ",,,,,
382019,E3820100450201,湯築小学校グラウンド,ユヅキショウガッコウグラウンド,,382019,,愛媛県松山市道後北代10-41,,,,,,33.8534425,132.7777068,,,,,,,,382019,愛媛県松山市,,1,1,1,1,,,,1,,"6,920 ",,,,,
382019,E3820100543201,味生小学校グラウンド,ミブショウガッコウグラウンド,,382019,,愛媛県松山市別府町166-4,,,,,,33.84389353,132.7251856,,,,,,,,382019,愛媛県松山市,,1,1,1,1,,,,1,,"12,625 ",,,,,
382019,E3820100545201,味生第二小学校グラウンド,ミブダイニショウガッコウグラウンド,,382019,,愛媛県松山市別府町3-1,,,,,,33.84435913,132.7287556,,,,,,,,382019,愛媛県松山市,1,,1,1,1,,,,1,,"12,546 ",,,,,
382019,E3820100158201,生石小学校グラウンド,ショウセキショウガッコウグラウンド,,382019,,愛媛県松山市高岡町630-3,,,,,,33.83218201,132.71587,,,,,,,,382019,愛媛県松山市,,1,1,1,1,,,,1,,"8,981 ",,,,,
382019,E3820100291201,垣生小学校グラウンド,ハブショウガッコウグラウンド,,382019,,愛媛県松山市西垣生町730-1,,,,,,33.81365027,132.7058208,,,,,,,,382019,愛媛県松山市,,1,,1,1,,,,1,,"17,779 ",,,,,
382019,E3820100658201,宮前小学校グラウンド,ミヤマエショウガッコウグラウンド,,382019,,愛媛県松山市祓川1-3-39,,,,,,33.85889123,132.7202933,,,,,,,,382019,愛媛県松山市,,1,,1,,,,,1,,"7,774 ",,,,,
382019,E3820100490201,三津浜小学校グラウンド,ミツハマショウガッコウグラウンド,,382019,,愛媛県松山市梅田町2-42,,,,,,33.85926984,132.7147698,,,,,,,,382019,愛媛県松山市,1,1,,1,1,,,,1,,"7,615 ",,,,,
382019,E3820100488201,高浜小学校グラウンド,タカハマショウガッコウグラウンド,,382019,,愛媛県松山市梅津寺町1352-2,,,,,,33.87587317,132.7089672,,,,,,,,382019,愛媛県松山市,1,,1,1,1,,,,1,,"9,952 ",,,,,
382019,E3820100009201,久枝小学校グラウンド,ヒサエダショウガッコウグラウンド,,382019,,愛媛県松山市安城寺町586-1,,,,,,33.87019803,132.7395465,,,,,,,,382019,愛媛県松山市,,1,1,1,1,,,,1,,"9,311 ",,,,,
382019,E3820100298201,みどり小学校グラウンド,ミドリショウガッコウグラウンド,,382019,,愛媛県松山市西長戸町493-2,,,,,,33.86630067,132.7399555,,,,,,,,382019,愛媛県松山市,,1,1,1,1,,,,1,,"10,473 ",,,,,
382019,E3820100066201,潮見小学校グラウンド,シオミショウガッコウグラウンド,,382019,,愛媛県松山市吉藤4-7-13,,,,,,33.87364451,132.7548337,,,,,,,,382019,愛媛県松山市,,1,1,1,1,,,,1,,"5,234 ",,,,,
382019,E3820100330201,和気小学校グラウンド,ワケショウガッコウグラウンド,,382019,,愛媛県松山市太山寺町671-3,,,,,,33.88930744,132.7319359,,,,,,,,382019,愛媛県松山市,,1,,1,,,,,1,,"9,228 ",,,,,
382019,E3820100524201,堀江小学校グラウンド,ホリエショウガッコウグラウンド,,382019,,愛媛県松山市福角町甲1409-2,,,,,,33.90170721,132.7578341,,,,,,,,382019,愛媛県松山市,,1,1,1,1,,,,1,,"9,273 ",,,,,
382019,E3820100631201,余土小学校グラウンド,ヨドショウガッコウグラウンド,,382019,,愛媛県松山市余戸東1-14-17,,,,,,33.81519844,132.7370471,,,,,,,,382019,愛媛県松山市,,1,1,1,1,,,,1,,"5,883 ",,,,,
382019,E3820100629201,さくら小学校グラウンド,サクラショウガッコウグラウンド,,382019,,愛媛県松山市余戸中4-11-1,,,,,,33.81837418,132.7292239,,,,,,,,382019,愛媛県松山市,,1,1,1,1,,,,1,,"9,710 ",,,,,
382019,E3820100499202,興居島小学校グラウンド,ゴゴシマショウガッコウグラウンド,,382019,,愛媛県松山市泊町甲425-3,,,,,,33.89361531,132.6714975,,,,,,,,382019,愛媛県松山市,1,1,,1,,,,,1,,"2,835 ",,,,,
382019,E3820100494201,興居島小学校釣島分校グラウンド,ゴゴシマショウガッコウツルシマブンコウグラウンド,,382019,,愛媛県松山市泊町1465,,,,,,33.89461085,132.6376051,,,,,,,,382019,愛媛県松山市,1,1,,1,,,,,1,,"2,006 ",,,,,
382019,E3820100079201,窪田小学校グラウンド,クボタショウガッコウグラウンド,,382019,,愛媛県松山市久米窪田町307,,,,,,33.80127305,132.816471,,,,,,,,382019,愛媛県松山市,,1,1,1,1,,,,1,,"8,370 ",,,,,
382019,E3820100521201,北久米小学校グラウンド,キタクメショウガッコウグラウンド,,382019,,愛媛県松山市福音寺町9,,,,,,33.82010828,132.7983449,,,,,,,,382019,愛媛県松山市,1,1,1,1,1,,,,1,,"9,219 ",,,,,
382019,E3820100520201,福音小学校グラウンド,フクオンショウガッコウグラウンド,,382019,,愛媛県松山市福音寺町355-1,,,,,,33.82126506,132.7899311,,,,,,,,382019,愛媛県松山市,1,1,1,1,1,,,,1,,"10,528 ",,,,,
382019,E3820100336201,久米小学校グラウンド,クメショウガッコウグラウンド,,382019,,愛媛県松山市鷹子町15-1,,,,,,33.81116986,132.8066113,,,,,,,,382019,愛媛県松山市,,1,1,1,1,,,,1,,"10,552 ",,,,,
382019,E3820100255201,湯山小学校グラウンド,ユヤマショウガッコウグラウンド,,382019,,愛媛県松山市食場町甲128,,,,,,33.86082877,132.8148064,,,,,,,,382019,愛媛県松山市,,,1,1,1,,,,1,,"5,761 ",,,,,
382019,E3820100047201,日浦小学校グラウンド,ヒウラショウガッコウグラウンド,,382019,,愛媛県松山市河中町甲79-2,,,,,,33.90115037,132.8720182,,,,,,,,382019,愛媛県松山市,1,,1,1,1,,,,1,,"6,565 ",,,,,
382019,E3820100034201,伊台小学校グラウンド,イダイショウガッコウグラウンド,,382019,,愛媛県松山市下伊台町1438-1,,,,,,33.87815143,132.7985614,,,,,,,,382019,愛媛県松山市,,,1,1,1,,,,1,,"8,070 ",,,,,
382019,E3820100272202,五明小学校グラウンド,ゴミョウショウガッコウグラウンド,,382019,,愛媛県松山市菅沢町乙45-4,,,,,,33.90319173,132.8188621,,,,,,,,382019,愛媛県松山市,1,,1,1,1,,,,1,,"2,630 ",,,,,
382019,E3820100533201,小野小学校グラウンド,オノショウガッコウグラウンド,,382019,,愛媛県松山市平井町3673,,,,,,33.80719829,132.8379784,,,,,,,,382019,愛媛県松山市,,1,1,1,1,,,,1,,"6,600 ",,,,,
382019,E3820100261201,浮穴小学校グラウンド,ウケナショウガッコウグラウンド,,382019,,愛媛県松山市森松町832,,,,,,33.79253482,132.7982332,,,,,,,,382019,愛媛県松山市,,1,1,1,1,,,,1,,"11,327 ",,,,,
382019,E3820100422201,石井小学校グラウンド,イシイショウガッコウグラウンド,,382019,,愛媛県松山市東石井6-8-52,,,,,,33.81100923,132.7761877,,,,,,,,382019,愛媛県松山市,,1,1,1,1,,,,1,,"6,930 ",,,,,
382019,E3820100652201,石井北小学校グラウンド,イシイキタショウガッコウグラウンド,,382019,,愛媛県松山市和泉南1-3-32,,,,,,33.81857226,132.7672823,,,,,,,,382019,愛媛県松山市,,1,1,1,1,,,,1,,"6,755 ",,,,,
382019,E3820100655201,椿小学校グラウンド,ツバキショウガッコウグラウンド,,382019,,愛媛県松山市和泉南6-1-47,,,,,,33.81063935,132.7600288,,,,,,,,382019,愛媛県松山市,,1,1,1,1,,,,1,,"9,728 ",,,,,
382019,E3820100021201,石井東小学校グラウンド,イシイヒガシショウガッコウグラウンド,,382019,,愛媛県松山市越智1-3-35,,,,,,33.80769579,132.7870463,,,,,,,,382019,愛媛県松山市,,1,1,1,1,,,,1,,"9,180 ",,,,,
382019,E3820100428201,荏原小学校グラウンド,エバラショウガッコウグラウンド,,382019,,愛媛県松山市東方町甲1245,,,,,,33.76866834,132.8182109,,,,,,,,382019,愛媛県松山市,,1,1,1,1,,,,1,,"7,745 ",,,,,
382019,E3820100072201,坂本小学校グラウンド,サカモトショウガッコウグラウンド,,382019,,愛媛県松山市久谷町30,,,,,,33.74905182,132.8258733,,,,,,,,382019,愛媛県松山市,,1,1,1,1,,,,1,,"4,500 ",,,,,
382019,E3820100318201,浅海小学校グラウンド,アサナミショウガッコウグラウンド,,382019,,愛媛県松山市浅海本谷甲728,,,,,,34.00966597,132.8033118,,,,,,,,382019,愛媛県松山市,1,1,,1,1,,,,1,,"6,170 ",,,,,
382019,E3820100025201,立岩小学校グラウンド,タテイワショウガッコウグラウンド,,382019,,愛媛県松山市猿川原甲49,,,,,,33.97546757,132.8358154,,,,,,,,382019,愛媛県松山市,1,1,1,1,1,,,,1,,"5,813 ",,,,,
382019,E3820100364201,難波小学校グラウンド,ナンバショウガッコウグラウンド,,382019,,愛媛県松山市中通甲807-1,,,,,,33.9830289,132.7947686,,,,,,,,382019,愛媛県松山市,1,1,1,1,1,,,,1,,"7,498 ",,,,,
382019,E3820100509201,正岡小学校グラウンド,マサオカショウガッコウグラウンド,,382019,,愛媛県松山市八反地甲160,,,,,,33.97034254,132.7944248,,,,,,,,382019,愛媛県松山市,,1,1,1,1,,,,1,,"5,242 ",,,,,
382019,E3820100579201,北条小学校グラウンド,ホウジョウショウガッコウグラウンド,,382019,,愛媛県松山市北条辻64,,,,,,33.97494905,132.7782795,,,,,,,,382019,愛媛県松山市,,1,,1,1,,,,1,,"9,720 ",,,,,
382019,E3820100094201,河野小学校グラウンド,コウノショウガッコウグラウンド,,382019,,愛媛県松山市宮内甲9-1,,,,,,33.95048211,132.7855949,,,,,,,,382019,愛媛県松山市,,1,1,1,1,,,,1,,"7,886 ",,,,,
382019,E3820100251201,粟井小学校グラウンド,アワイショウガッコウグラウンド,,382019,,愛媛県松山市常竹甲100,,,,,,33.93409605,132.7760837,,,,,,,,382019,愛媛県松山市,,,1,1,1,,,,1,,"8,276 ",,,,,
382019,E3820100592201,睦月小学校グラウンド,ムヅキショウガッコウグラウンド,,382019,,愛媛県松山市睦月甲1068-6,,,,,,33.95760524,132.6646239,,,,,,,,382019,愛媛県松山市,1,,,1,,,,,1,,"2,109 ",,,,,
382019,E3820100617201,野忽那小学校グラウンド,ノグツナショウガッコウグラウンド,,382019,,愛媛県松山市野忽那甲1540-1,,,,,,33.97540793,132.6893998,,,,,,,,382019,愛媛県松山市,1,,,1,,,,,1,,"2,994 ",,,,,
382019,E3820100385201,中島小学校グラウンド,ナカジマショウガッコウグラウンド,,382019,,愛媛県松山市長師564,,,,,,33.96266523,132.6258154,,,,,,,,382019,愛媛県松山市,1,,1,1,1,,,,1,,"7,840 ",,,,,
382019,E3820100118201,怒和小学校グラウンド,ヌワショウガッコウグラウンド,,382019,,愛媛県松山市元怒和甲8-2,,,,,,33.97296094,132.5490908,,,,,,,,382019,愛媛県松山市,1,,,1,,,,,1,,"2,500 ",,,,,
382019,E3820100391201,津和地小学校グラウンド,ツワジショウガッコウグラウンド,,382019,,愛媛県松山市津和地1588-1,,,,,,33.97546507,132.5081317,,,,,,,,382019,愛媛県松山市,1,,,1,,,,,1,,"3,701 ",,,,,
382019,E3820100477201,二神小学校グラウンド,フタガミショウガッコウグラウンド,,382019,,愛媛県松山市二神甲227,,,,,,33.93506128,132.5444245,,,,,,,,382019,愛媛県松山市,1,1,,1,,,,,1,,"2,052 ",,,,,
382019,E3820100529201,東中学校グラウンド,ヒガシチュウガッコウグラウンド,,382019,,愛媛県松山市文京町2-2,,,,,,33.85024931,132.774879,,,,,,,,382019,愛媛県松山市,,1,1,1,1,,,,1,,"7,786 ",,,,,
382019,E3820100195201,拓南中学校グラウンド,タクナンチュウガッコウグラウンド,,382019,,愛媛県松山市枝松5-4-39,,,,,,33.82830368,132.783771,,,,,,,,382019,愛媛県松山市,,1,1,1,1,,,,1,,"10,473 ",,,,,
382019,E3820100348201,城西中学校グラウンド,ジョウセイチュウガッコウグラウンド,,382019,,愛媛県松山市竹原3-19-35,,,,,,33.8343588,132.7471237,,,,,,,,382019,愛媛県松山市,,1,1,1,1,,,,1,,"15,283 ",,,,,
382019,E3820100398201,雄新中学校グラウンド,ユウシンチュウガッコウグランド,,382019,,愛媛県松山市土居田町1,,,,,,33.82449068,132.7542923,,,,,,,,382019,愛媛県松山市,,1,1,1,1,,,,1,,"11,417 ",,,,,
382019,E3820100282201,勝山中学校グラウンド,カツヤマチュウガッコウグラウンド,,382019,,愛媛県松山市清水町3-148-2,,,,,,33.85194334,132.7636833,,,,,,,,382019,愛媛県松山市,,1,1,1,1,,,,1,,"9,759 ",,,,,
382019,E3820100507201,桑原中学校グラウンド,クワバラチュウガッコウグラウンド,,382019,,愛媛県松山市畑寺町丙238-28,,,,,,33.83624435,132.805795,,,,,,,,382019,愛媛県松山市,1,,1,1,1,,,,1,,"13,406 ",,,,,
382019,E3820100244201,道後中学校グラウンド,ドウゴチュウガッコウグラウンド,,382019,,愛媛県松山市上市1-3-57,,,,,,33.84530121,132.7893687,,,,,,,,382019,愛媛県松山市,,1,1,1,1,,,,1,,"11,285 ",,,,,
382019,E3820100562201,津田中学校グラウンド,ツダチュウガッコウグラウンド,,382019,,愛媛県松山市北斎院町1106,,,,,,33.83749793,132.7227946,,,,,,,,382019,愛媛県松山市,,,1,1,1,,,,1,,"12,216 ",,,,,
382019,E3820100154201,西中学校グラウンド,ニシチュウガッコウグラウンド,,382019,,愛媛県松山市高岡町409,,,,,,33.82570951,132.7174712,,,,,,,,382019,愛媛県松山市,,1,,1,1,,,,1,,"11,564 ",,,,,
382019,E3820100290201,垣生中学校グラウンド,ハブチュウガッコウグラウンド,,382019,,愛媛県松山市西垣生町418,,,,,,33.80917279,132.7060858,,,,,,,,382019,愛媛県松山市,,1,,1,1,,,,1,,"11,143 ",,,,,
382019,E3820100204201,三津浜中学校グラウンド,ミツハマチュウガッコウグラウンド,,382019,,愛媛県松山市若葉町8-48,,,,,,33.85604567,132.7183327,,,,,,,,382019,愛媛県松山市,,1,,1,,,,,1,,"7,193 ",,,,,
382019,E3820100489201,高浜中学校グラウンド,タカハマチュウガッコウグラウンド,,382019,,愛媛県松山市梅津寺町乙52,,,,,,33.87565469,132.7102154,,,,,,,,382019,愛媛県松山市,1,,1,1,1,,,,1,,"7,690 ",,,,,
382019,E3820100060201,鴨川中学校グラウンド,カモガワチュウガッコウグラウンド,,382019,,愛媛県松山市鴨川2-7-19,,,,,,33.87348578,132.7505726,,,,,,,,382019,愛媛県松山市,,1,1,1,1,,,,1,,"6,700 ",,,,,
382019,E3820100329201,北中学校グラウンド,キタチュウガッコウグラウンド,,382019,,愛媛県松山市太山寺町491-1,,,,,,33.88241632,132.7348915,,,,,,,,382019,愛媛県松山市,,1,,1,1,,,,1,,"13,350 ",,,,,
382019,E3820100451201,内宮中学校グラウンド,ウチミヤチュウガッコウグラウンド,,382019,,愛媛県松山市内宮町569-1,,,,,,33.89363466,132.74979,,,,,,,,382019,愛媛県松山市,,1,1,1,1,,,,1,,"3,613 ",,,,,
382019,E3820100551201,余土中学校グラウンド,ヨドチュウガッコウグラウンド,,382019,,愛媛県松山市保免西4-5-23,,,,,,33.81375999,132.7422128,,,,,,,,382019,愛媛県松山市,,1,1,1,1,,,,1,,"36,262 ",,,,,
382019,E3820100190201,椿中学校グラウンド,ツバキチュウガッコウグラウンド,,382019,,愛媛県松山市市坪南1-1-20,,,,,,33.80868393,132.7541525,,,,,,,,382019,愛媛県松山市,,1,1,1,1,,,,1,,"10,021 ",,,,,
382019,E3820100499201,興居島中学校グラウンド,ゴゴシマチュウガッコウグラウンド,,382019,,愛媛県松山市泊町甲425-3,,,,,,33.89365984,132.6713688,,,,,,,,382019,愛媛県松山市,1,1,,1,,,,,1,,0 ,,,,,
382019,E3820100641201,久米中学校グラウンド,クメチュウガッコウグラウンド,,382019,,愛媛県松山市来住町689,,,,,,33.80169403,132.801856,,,,,,,,382019,愛媛県松山市,,1,1,1,1,,,,1,,"14,342 ",,,,,
382019,E3820100147201,湯山中学校グラウンド,ユヤマチュウガッコウグラウンド,,382019,,愛媛県松山市溝辺町甲508-1,,,,,,33.85265926,132.8058222,,,,,,,,382019,愛媛県松山市,,,1,1,1,,,,1,,"8,942 ",,,,,
382019,E3820100045201,日浦中学校グラウンド,ヒウラチュウガッコウグラウンド,,382019,,愛媛県松山市河中町188-1,,,,,,33.90178287,132.8708725,,,,,,,,382019,愛媛県松山市,1,1,1,1,1,,,,1,,"3,862 ",,,,,
382019,E3820100031201,旭中学校グラウンド,アサヒチュウガッコウグラウンド,,382019,,愛媛県松山市下伊台町1105-1,,,,,,33.87387799,132.8025546,,,,,,,,382019,愛媛県松山市,,1,1,1,1,,,,1,,"8,976 ",,,,,
382019,E3820100534201,小野中学校グラウンド,オノチュウガッコウグラウンド,,382019,,愛媛県松山市平井町3690,,,,,,33.80757748,132.8369197,,,,,,,,382019,愛媛県松山市,,1,1,1,1,,,,1,,"11,315 ",,,,,
382019,E3820100263201,南第二中学校グラウンド,ミナミダイニチュウガッコウグラウンド,,382019,,愛媛県松山市森松町943,,,,,,33.79595563,132.7923915,,,,,,,,382019,愛媛県松山市,,1,1,1,1,,,,1,,"12,660 ",,,,,
382019,E3820100423201,南中学校グラウンド,ミナミチュウガッコウグラウンド,,382019,,愛媛県松山市東石井7-2-52,,,,,,33.80683037,132.7755132,,,,,,,,382019,愛媛県松山市,,1,1,1,1,,,,1,,"11,883 ",,,,,
382019,E3820100253201,久谷中学校グラウンド,クタニチュウガッコウグラウンド,,382019,,愛媛県松山市浄瑠璃町940,,,,,,33.75860636,132.8188234,,,,,,,,382019,愛媛県松山市,1,1,1,1,1,,,,1,,"9,405 ",,,,,
382019,E3820100576201,北条北中学校グラウンド,ホウジョウキタチュウガッコウグラウンド,,382019,,愛媛県松山市北条辻365,,,,,,33.97078105,132.7824409,,,,,,,,382019,愛媛県松山市,,1,,1,1,,,,1,,"25,020 ",,,,,
382019,E3820100051201,北条南中学校グラウンド,ホウジョウミナミチュウガッコウグラウンド,,382019,,愛媛県松山市河野別府12,,,,,,33.94629316,132.7804368,,,,,,,,382019,愛媛県松山市,,,1,1,1,,,,1,,"22,895 ",,,,,
382019,E3820100386201,中島中学校グラウンド,ナカジマチュウガッコウグラウンド,,382019,,愛媛県松山市長師817,,,,,,33.96403979,132.6256057,,,,,,,,382019,愛媛県松山市,1,,1,1,1,,,,1,,0 ,,,,,
382019,E3820100266201,三津浜幼稚園グラウンド,ミツハマヨウチエングラウンド,,382019,,愛媛県松山市神田町1-41,,,,,,33.8609669,132.7190167,,,,,,,,382019,愛媛県松山市,,1,,1,,,,,1,,"1,465 ",,,,,
382019,E3820100272201,五明幼稚園グラウンド,ゴミョウヨウチエングラウンド,,382019,,愛媛県松山市菅沢町乙45-4,,,,,,33.90331194,132.8187709,,,,,,,,382019,愛媛県松山市,1,,1,1,1,,,,1,,474 ,,,,,
382019,E3820100293201,石井幼稚園グラウンド,イシイヨウチエングラウンド,,382019,,愛媛県松山市西石井6-4-29,,,,,,33.81246776,132.7743209,,,,,,,,382019,愛媛県松山市,,1,1,1,1,,,,1,,884 ,,,,,
382019,E3820100430201,荏原幼稚園グラウンド,エバラヨウチエングラウンド,,382019,,愛媛県松山市東方町甲1493-3,,,,,,33.76879372,132.8168902,,,,,,,,382019,愛媛県松山市,,1,1,1,1,,,,1,,824 ,,,,,
382019,E3820100071201,坂本幼稚園グラウンド,サカモトヨウチエングラウンド,,382019,,愛媛県松山市久谷町24,,,,,,33.74942514,132.8250742,,,,,,,,382019,愛媛県松山市,,1,1,1,1,,,,1,,895 ,,,,,
382019,E3820100170201,八雲保育園グラウンド,ヤクモホイクエングラウンド,,382019,,愛媛県松山市此花町1-8,,,,,,33.84019015,132.7809061,,,,,,,,382019,愛媛県松山市,,1,1,1,1,,,,1,,"1,690 ",,,,,
382019,E3820100359201,松山保育園グラウンド,マツヤマホイクエングラウンド,,382019,,愛媛県松山市中村3-5-29,,,,,,33.83041343,132.7759057,,,,,,,,382019,愛媛県松山市,,1,1,1,1,,,,1,,872 ,,,,,
382019,E3820100515201,朝美保育園グラウンド,アサミホイクエングラウンド,,382019,,愛媛県松山市美沢2-7-39,,,,,,33.85096337,132.7462402,,,,,,,,382019,愛媛県松山市,,1,1,1,1,,,,1,,427 ,,,,,
382019,E3820100179201,山越保育園グラウンド,ヤマゴエホイクエングラウンド,,382019,,愛媛県松山市山越1-19-40,,,,,,33.85633676,132.7554524,,,,,,,,382019,愛媛県松山市,,1,1,1,1,,,,1,,999 ,,,,,
382019,E3820100109201,桑原保育園グラウンド,クワバラホイクエングラウンド,,382019,,愛媛県松山市桑原4-10-22,,,,,,33.83247794,132.7945902,,,,,,,,382019,愛媛県松山市,1,1,1,1,1,,,,1,,707 ,,,,,
382019,E3820100448201,道後保育園グラウンド,ドウゴホイクエングラウンド,,382019,,愛媛県松山市道後姫塚123-1,,,,,,33.84951193,132.7891894,,,,,,,,382019,愛媛県松山市,1,,1,1,1,,,,1,,734 ,,,,,
382019,E3820100565201,味生保育園グラウンド,ミブホイクエングラウンド,,382019,,愛媛県松山市北斎院町759-1,,,,,,33.84283469,132.7250139,,,,,,,,382019,愛媛県松山市,,1,1,1,1,,,,1,,803 ,,,,,
382019,E3820100161201,生石保育園グラウンド,ショウセキホイクエングラウンド,,382019,,愛媛県松山市高岡町860-1,,,,,,33.83062292,132.7127646,,,,,,,,382019,愛媛県松山市,,1,,1,1,,,,1,,248 ,,,,,
382019,E3820100350201,中須賀保育園グラウンド,ナカスガホイクエングラウンド,,382019,,愛媛県松山市中須賀1-12-17,,,,,,33.86454994,132.7245173,,,,,,,,382019,愛媛県松山市,,1,,1,,,,,1,,"1,135 ",,,,,
382019,E3820100166201,高浜保育園グラウンド,タカハマホイクエングラウンド,,382019,,愛媛県松山市高浜町6-1674,,,,,,33.89305823,132.7083056,,,,,,,,382019,愛媛県松山市,1,,,1,,,,,1,,506 ,,,,,
382019,E3820100598201,堀江保育園グラウンド,ホリエホイクエングラウンド,,382019,,愛媛県松山市堀江町甲1654-9,,,,,,33.90478898,132.7484575,,,,,,,,382019,愛媛県松山市,,1,,1,,,,,1,,303 ,,,,,
382019,E3820100633201,余土保育園グラウンド,ヨドホイクエングラウンド,,382019,,愛媛県松山市余戸東4-1-19,,,,,,33.81593874,132.7361983,,,,,,,,382019,愛媛県松山市,,1,1,1,1,,,,1,,"1,024 ",,,,,
382019,E3820100624201,もものはなこども園グラウンド,モモノハナホイクエングラウンド,,382019,,愛媛県松山市由良町479,,,,,,33.9017054,132.6740224,,,,,,,,382019,愛媛県松山市,1,1,,1,,,,,1,,501 ,,,,,
382019,E3820100338201,久米保育園グラウンド,クメホイクエングラウンド,,382019,,愛媛県松山市鷹子町4-4,,,,,,33.8099833,132.8063672,,,,,,,,382019,愛媛県松山市,,1,1,1,1,,,,1,,417 ,,,,,
382019,E3820100148201,小百合保育園グラウンド,サユリホイクエングラウンド,,382019,,愛媛県松山市溝辺町甲528,,,,,,33.85290874,132.8065088,,,,,,,,382019,愛媛県松山市,,1,1,1,1,,,,1,,513 ,,,,,
382019,E3820100036201,伊台保育園グラウンド,イダイホイクエングラウンド,,382019,,愛媛県松山市下伊台町1493-1,,,,,,33.87786589,132.7991308,,,,,,,,382019,愛媛県松山市,1,1,1,1,1,,,,1,,202 ,,,,,
382019,E3820100535201,平井保育園グラウンド,ヒライホイクエングラウンド,,382019,,愛媛県松山市平井町甲118,,,,,,33.80952295,132.8361545,,,,,,,,382019,愛媛県松山市,,1,1,1,1,,,,1,,"1,020 ",,,,,
382019,E3820100468201,浮穴保育園グラウンド,ウケナホイクエングラウンド,,382019,,愛媛県松山市南高井町1608-2,,,,,,33.79223645,132.7993685,,,,,,,,382019,愛媛県松山市,,1,1,1,1,,,,1,,"1,332 ",,,,,
382019,E3820100294201,石井保育園グラウンド,イシイホイクエングラウンド,,382019,,愛媛県松山市西石井6-4-34,,,,,,33.81238886,132.7751928,,,,,,,,382019,愛媛県松山市,,1,1,1,1,,,,1,,"1,519 ",,,,,
382019,E3820100132201,つばき保育園グラウンド,ツバキホイクエングラウンド,,382019,,愛媛県松山市古川北2-18-30,,,,,,33.81282758,132.7627923,,,,,,,,382019,愛媛県松山市,,1,1,1,1,,,,1,,"1,714 ",,,,,
382019,E3820100317201,浅海保育園グラウンド,アサナミホイクエングラウンド,,382019,,愛媛県松山市浅海本谷甲719-1,,,,,,34.00995715,132.8019187,,,,,,,,382019,愛媛県松山市,1,1,,1,,,,,1,,"1,211 ",,,,,
382019,E3820100510201,国津保育園グラウンド,クニツホイクエングラウンド,,382019,,愛媛県松山市八反地甲1647,,,,,,33.97082539,132.7904171,,,,,,,,382019,愛媛県松山市,,1,1,1,1,,,,1,,917 ,,,,,
382019,E3820100202201,粟井保育園グラウンド,アワイホイクエングラウンド,,382019,,愛媛県松山市鹿峰63-2,,,,,,33.93644248,132.7735144,,,,,,,,382019,愛媛県松山市,,1,1,1,1,,,,1,,512 ,,,,,
382019,E3820100672201,中島こども園グラウンド,ナカジマホイクエングラウンド,,382019,,愛媛県松山市中島大浦3021-1,,,,,,33.97391,132.627713,,,,,,,,382019,愛媛県松山市,1,1,,1,,,,,1,,746 ,,,,,
382019,E3820100119201,元怒和保育所グラウンド,モトヌワホイクショグラウンド,,382019,,愛媛県松山市元怒和甲925-1,,,,,,33.97541901,132.5427031,,,,,,,,382019,愛媛県松山市,1,,,1,1,,,,1,,173 ,,,,,
382019,E3820100392201,津和地保育所グラウンド,ツワジホイクショグラウンド,,382019,,愛媛県松山市津和地420,,,,,,33.98211582,132.5126026,,,,,,,,382019,愛媛県松山市,1,,,1,,,,,1,,219 ,,,,,
382019,E3820100002201,松山商業高等学校グラウンド,マツヤマショウギョウコウトウガッコウグラウンド,,382019,,愛媛県松山市旭町71,,,,,,33.84001712,132.7773883,,,,,,,,382019,愛媛県松山市,,1,1,1,1,,,,1,,"13,854 ",,,,,
382019,E3820100334201,松山東雲中学・高等学校グラウンド,マツヤマシノノメチュウガクコウトウガッコウグラウンド,,382019,,愛媛県松山市大街道3-2-24,,,,,,33.84327615,132.7702944,,,,,,,,382019,愛媛県松山市,1,,1,1,1,,,,1,,"4,921 ",,,,,
382019,E3820100198201,松山東高等学校グラウンド,マツヤマヒガシコウトウガッコウグラウンド,,382019,,愛媛県松山市持田町2-2-12,,,,,,33.84220563,132.7788723,,,,,,,,382019,愛媛県松山市,,1,1,1,1,,,,1,,"13,405 ",,,,,
382019,E3820100531201,松山北高等学校グラウンド,マツヤマキタコウトウガッコウグラウンド,,382019,,愛媛県松山市文京町4-1,,,,,,33.84975722,132.7689963,,,,,,,,382019,愛媛県松山市,,1,1,1,1,,,,1,,"16,491 ",,,,,
382019,E3820100532201,学校法人松山大学グラウンド,マツヤマダイガクグラウンド,,382019,,愛媛県松山市文京町4-2,,,,,,33.85004235,132.7664536,,,,,,,,382019,愛媛県松山市,,1,1,1,1,,,,1,,"20,603 ",,,,,
382019,E3820100264201,松山工業高等学校グラウンド,マツヤマコウギョウコウトウガッコウグラウンド,,382019,,愛媛県松山市真砂町1,,,,,,33.83221767,132.7615597,,,,,,,,382019,愛媛県松山市,,1,1,1,1,,,,1,,"12,273 ",,,,,
382019,E3820100605201,松山南高等学校グラウンド,マツヤマミナミコウトウガッコウグラウンド,,382019,,愛媛県松山市末広町11-1,,,,,,33.83286936,132.7629596,,,,,,,,382019,愛媛県松山市,,1,1,1,1,,,,1,,"11,687 ",,,,,
382019,E3820100378201,聖カタリナ学園高等学校グラウンド,セイカタリナガクエンコウトウガッコウグラウンド,,382019,,愛媛県松山市朝生田町4-9-9,,,,,,33.823214,132.764785,,,,,,,,382019,愛媛県松山市,,1,1,1,1,,,,1,,"8,594 ",,,,,
382019,E3820100010201,学校法人愛光学園グラウンド,アイコウガクエングラウンド,,382019,,愛媛県松山市衣山5-1610-1,,,,,,33.84520539,132.7350722,,,,,,,,382019,愛媛県松山市,1,,1,1,1,,,,1,,"47,550 ",,,,,
382019,E3820100133201,学校法人松山大学御幸キャンパスグラウンド,マツヤマダイガクミユキキャンパス,,382019,,愛媛県松山市御幸1-320-1 外,,,,,,33.85501806,132.7655169,,,,,,,,382019,愛媛県松山市,,,1,1,1,,,,1,,"30,868 ",,,,,
382019,E3820100347201,愛媛大学附属高等学校グラウンド,エヒメダイガクフゾクコウトウガッコウグラウンド,,382019,,愛媛県松山市樽味3-2-40,,,,,,33.83825519,132.7941717,,,,,,,,382019,愛媛県松山市,,1,1,1,1,,,,1,,"7,700 ",,,,,
382019,E3820100107201,松山東雲女子大学・短期大学グラウンド,マツヤマシノノメジョシダイガクタンキダイガクグラウンド,,382019,,愛媛県松山市桑原3-2-1,,,,,,33.83288688,132.7965033,,,,,,,,382019,愛媛県松山市,1,1,1,1,1,,,,1,,"3,848 ",,,,,
382019,E3820100322201,愛媛慈恵会地域交流ホームグラウンド,エヒメジケイカイチイキコウリュウホームグラウンド,,382019,,愛媛県松山市束本2-13-3,,,,,,33.82817703,132.7888691,,,,,,,,382019,愛媛県松山市,,1,1,1,1,,,,1,,"2,000 ",,,,,
382019,E3820100197202,愛媛大学教育学部附属小学校グラウンド,エヒメダイガクキョウイクガクブフゾクショウガッコウグラウンド,,382019,,愛媛県松山市持田町1-5-22,,,,,,33.84350514,132.7837564,,,,,,,,382019,愛媛県松山市,,1,1,1,1,,,,1,,"5,000 ",,,,,
382019,E3820100197201,愛媛大学教育学部附属中学校グラウンド,エヒメダイガクキョウイクガクブフゾクチュウガッコウグラウンド,,382019,,愛媛県松山市持田町1-5-22,,,,,,33.84190115,132.7825225,,,,,,,,382019,愛媛県松山市,,1,1,1,1,,,,1,,"8,000 ",,,,,
382019,E3820100186201,学校法人新田学園グラウンド,ニッタガクエングラウンド,,382019,,愛媛県松山市山西町663,,,,,,33.85163489,132.7261571,,,,,,,,382019,愛媛県松山市,,,,1,1,,,,1,,"34,385 ",,,,,
382019,E3820100100201,済美平成中等教育学校グラウンド,サイビヘイセイチュウトウキョウイクガッコウグラウンド,,382019,,愛媛県松山市空港通5-6-3,,,,,,33.82679938,132.7331803,,,,,,,,382019,愛媛県松山市,,1,1,1,1,,,,1,,"16,025 ",,,,,
382019,E3820100288201,木の実幼稚園グラウンド,コノミヨウチエングラウンド,,382019,,愛媛県松山市西垣生町1690-1,,,,,,33.81281531,132.6982064,,,,,,,,382019,愛媛県松山市,,1,,1,,,,,1,,"2,890 ",,,,,
382019,E3820100086201,松山盲学校グラウンド,マツヤマモウガッコウグラウンド,,382019,,愛媛県松山市久万ﾉ台112,,,,,,33.85642885,132.749167,,,,,,,,382019,愛媛県松山市,,1,1,1,1,,,,1,,"5,510 ",,,,,
382019,E3820100085201,学校法人松山聖陵学園松山聖陵高等学校グラウンド,マツヤマセイリョウコウトウガッコウグラウンド,,382019,,愛媛県松山市久万ﾉ台1112,,,,,,33.85678964,132.7411481,,,,,,,,382019,愛媛県松山市,1,1,1,1,1,,,,1,,"13,434 ",,,,,
382019,E3820100088201,松山西中等教育学校グラウンド,マツヤマニシチュウトウキョウイクガッコウグラウンド,,382019,,愛媛県松山市久万ﾉ台1485-4,,,,,,33.85993135,132.7375535,,,,,,,,382019,愛媛県松山市,1,1,1,1,1,,,,1,,"21,807 ",,,,,
382019,E3820100486201,松山聾学校グラウンド,マツヤマロウガッコウグラウンド,,382019,,愛媛県松山市馬木町2325,,,,,,33.88921748,132.7453131,,,,,,,,382019,愛媛県松山市,1,1,,1,1,,,,1,,"12,243 ",,,,,
382019,E3820100561201,学校法人松山学院　松山学院高等学校グラウンド,マツヤマジョウナンコウトウガッコウグラウンド,,382019,,愛媛県松山市北久米町815,,,,,,33.81591438,132.7895775,,,,,,,,382019,愛媛県松山市,,,1,1,1,,,,1,,"18,514 ",,,,,
382019,E3820100014201,松山中央高等学校グラウンド,マツヤマチュウオウコウトウガッコウグラウンド,,382019,,愛媛県松山市井門町1220,,,,,,33.80012386,132.7682185,,,,,,,,382019,愛媛県松山市,,1,1,1,1,,,,1,,"24,186 ",,,,,
382019,E3820100571201,聖カタリナ大学グラウンド,セイカタリナダイガクグラウンド,,382019,,愛媛県松山市北条690,,,,,,33.97571034,132.7810832,,,,,,,,382019,愛媛県松山市,,1,,1,1,,,,1,,719 ,,,,,
382019,E3820100578201,北条高等学校グラウンド,ホウジョウコウコウグラウンド,,382019,,愛媛県松山市北条辻600-1,,,,,,33.9691084,132.7753432,,,,,,,,382019,愛媛県松山市,,1,,1,1,,,,1,,"19,118 ",,,,,
382019,E3820100370201,松山北高等学校中島分校グラウンド,マツヤマキタコウトウガッコウグラウンド,,382019,,愛媛県松山市中島大浦3100-1,,,,,,33.97321069,132.62638,,,,,,,,382019,愛媛県松山市,1,,,1,1,,,,1,,"13,698 ",,,,,
382019,E3820100505201,松山市畑寺福祉センターグラウンド,マツヤマシハタデラフクシセンターグラウンド,,382019,,愛媛県松山市畑寺4-8-5,,,,,,33.82551562,132.8039559,,,,,,,,382019,愛媛県松山市,,,1,1,1,,,,1,,"2,620 ",,,,,
382019,E3820100215201,和気公民館勝岡分館グラウンド,ワケコウミンカンカツオカブンカングラウンド,,382019,,愛媛県松山市勝岡町112,,,,,,33.89832845,132.7257726,,,,,,,,382019,愛媛県松山市,,1,,1,,,,,1,,"1,018 ",,,,,
382019,E3820100496201,泊小学校跡グラウンド,トマリショウガッコウアトグラウンド,,382019,,愛媛県松山市泊町618-1,,,,,,33.88116592,132.6801679,,,,,,,,382019,愛媛県松山市,1,,,1,,,,,1,,602 ,,,,,
382019,E3820100233201,中島Ｂ＆Ｇ海洋センターグラウンド,ナカジマビーアンドジーカイヨウセンターグラウンド,,382019,,愛媛県松山市小浜甲1101-1,,,,,,33.96620363,132.6286402,,,,,,,,382019,愛媛県松山市,1,,1,1,1,,,,1,,"3,000 ",,,,,
382019,E3820100366201,城山小学校跡グラウンド,シロヤマショウガッコウアトグラウンド,,382019,,愛媛県松山市中島粟井甲876,,,,,,33.99449384,132.6376181,,,,,,,,382019,愛媛県松山市,1,1,1,1,1,,,,1,,"2,282 ",,,,,
